advertisement,area,city,community,direction,distance,houseInfo,lat,layout,link,lng,price,time,title,url
0,,翡翠城,余杭翡翠城翡翠城梧桐郡,,4.277,--139.00㎡南4室2厅2卫,30.253900245429797,,/zufang/HZ2792543542407872512.html,120.02354840776695,6850,1天前维护,整租·翡翠城梧桐郡4室2厅南,https://hz.lianjia.com/zufang/feicuicheng1/pg1/
0,,翡翠城,余杭翡翠城翡翠城一期,,5.262,精选--11.30㎡南4室1厅2卫,30.246105505005875,,/zufang/HZ2825369230361231360.html,120.02891632217238,1330,友家3天前维护,合租·翡翠城一期4居室南卧,https://hz.lianjia.com/zufang/feicuicheng1/pg1/
0,,翡翠城,余杭翡翠城翡翠城二期,,5.527,--85.00㎡南2室2厅1卫,30.244680107694965,,/zufang/HZ2818190565106262016.html,120.03121104359761,4500,2天前维护,整租·翡翠城二期2室2厅南,https://hz.lianjia.com/zufang/feicuicheng1/pg1/
0,,翡翠城,余杭翡翠城翡翠城一期,,5.262,精选--16.10㎡南4室1厅2卫,30.246105505005875,,/zufang/HZ2825374604808159232.html,120.02891632217238,1490,友家3天前维护,合租·翡翠城一期4居室南卧,https://hz.lianjia.com/zufang/feicuicheng1/pg1/
0,,翡翠城,余杭翡翠城华元蒙卡岸,,4.457,--128.00㎡南3室2厅2卫,30.247045280842684,,/zufang/HZ2818165278855405568.html,120.0163920569217,4500,3天前维护,整租·华元蒙卡岸3室2厅南,https://hz.lianjia.com/zufang/feicuicheng1/pg1/
1,,翡翠城,米果公寓,,1106.461,38.00㎡2间在租1室1厅1卫,39.729892677964735,,/apartment/2273.html,116.17126682657968,,米果公寓4天前维护,独栋·米果公寓五常部落朝南38平整租大平层1室1厅,https://hz.lianjia.com/zufang/feicuicheng1/pg1/
0,,翡翠城,余杭翡翠城绿城翡翠湾,,5.19,--152.00㎡南3室2厅2卫,30.248029348772224,,/zufang/HZ2825887607790247936.html,120.03019092786047,5200,4天前维护,整租·绿城翡翠湾3室2厅南,https://hz.lianjia.com/zufang/feicuicheng1/pg1/
0,,翡翠城,余杭翡翠城溪上玫瑰园,,4.361,--367.50㎡南4室2厅1卫,30.257043827433787,,/zufang/HZ2815942091467923456.html,120.02797489799792,20000,1天前维护,整租·溪上玫瑰园4室2厅跃层南,https://hz.lianjia.com/zufang/feicuicheng1/pg1/
0,,翡翠城,余杭翡翠城翡翠城一期,,5.262,--233.21㎡南6室4厅4卫,30.246105505005875,,/zufang/HZ2146861758629806080.html,120.02891632217238,9000,链家4天前维护,整租·翡翠城一期6室4厅南,https://hz.lianjia.com/zufang/feicuicheng1/pg1/
0,,翡翠城,余杭翡翠城西溪乐天城,,6.013,--50.00㎡南2室1厅1卫,30.250753754064927,,/zufang/HZ2373803149221183488.html,120.04396832929757,3200,贝壳优选8个月前维护,整租·西溪乐天城2室1厅南,https://hz.lianjia.com/zufang/feicuicheng1/pg1/
0,,翡翠城,余杭翡翠城西溪乐天城,,6.013,--49.00㎡南2室1厅1卫,30.250753754064927,,/zufang/HZ2373800904378810368.html,120.04396832929757,3200,贝壳优选7个月前维护,整租·西溪乐天城2室1厅南,https://hz.lianjia.com/zufang/feicuicheng1/pg1/
1,,翡翠城,和居公寓,,5.992,58.00㎡1间在租2室1厅1卫,30.250824415532687,,/apartment/2656.html,120.04375480207784,,和居公寓3天前维护,独栋·和居公寓五常店两室一厅特价房2室1厅,https://hz.lianjia.com/zufang/feicuicheng1/pg1/
0,,翡翠城,余杭翡翠城西溪乐天城,,6.013,--48.00㎡南2室2厅1卫,30.250753754064927,,/zufang/HZ2373792394824130560.html,120.04396832929757,3200,贝壳优选7个月前维护,整租·西溪乐天城2室2厅南,https://hz.lianjia.com/zufang/feicuicheng1/pg1/
1,,翡翠城,和居公寓,,5.992,28.00㎡1间在租1室1厅1卫,30.250824415532687,,/apartment/2656.html,120.04375480207784,,和居公寓3天前维护,独栋·和居公寓五常店环保家装清新自然1室1厅,https://hz.lianjia.com/zufang/feicuicheng1/pg1/
0,,西溪,余杭西溪香港兴业耦园,,5.529,--121.97㎡南4室2厅2卫,30.273700900793585,,/zufang/HZ2645494419473833984.html,120.04920805550671,5700,链家今天维护,整租·香港兴业耦园4室2厅南,https://hz.lianjia.com/zufang/xixi/pg1/
0,,翡翠城,余杭翡翠城西溪乐天城,,6.013,--50.00㎡南2室1厅1卫,30.250753754064927,,/zufang/HZ2330880097047027712.html,120.04396832929757,3200,贝壳优选7个月前维护,整租·西溪乐天城2室1厅南,https://hz.lianjia.com/zufang/feicuicheng1/pg1/
1,,西溪,氧气公寓,,1526.421,20.00㎡1间在租1室0厅1卫,30.62618404247885,,/apartment/1838.html,104.05963614582176,,氧气公寓5天前维护,独栋·氧气公寓骆家庄文新地铁站店一室一卫整租单间开间,https://hz.lianjia.com/zufang/xixi/pg1/
0,,翡翠城,余杭翡翠城翡翠城一期,,5.262,--150.18㎡南3室2厅2卫,30.246105505005875,,/zufang/HZ2424576647106658304.html,120.02891632217238,6200,1天前维护,整租·翡翠城一期3室2厅南,https://hz.lianjia.com/zufang/feicuicheng1/pg1/
0,,西溪,西湖西溪坤和西溪里,,7.286,--88.47㎡南3室2厅1卫,30.297655428879224,,/zufang/HZ2749374594698706944.html,120.06578655318502,6300,链家1天前维护,整租·坤和西溪里3室2厅南,https://hz.lianjia.com/zufang/xixi/pg1/
0,,翡翠城,余杭翡翠城翡翠城一期,,5.262,--146.28㎡南北3室2厅2卫,30.246105505005875,,/zufang/HZ2386873771501035520.html,120.02891632217238,4200,链家2天前维护,整租·翡翠城一期3室2厅南/北,https://hz.lianjia.com/zufang/feicuicheng1/pg1/
1,,西溪,世联红璞公寓,,182.841,35.00㎡11间在租1室1厅1卫,31.26920385277832,,/apartment/39946.html,121.52229299858581,,世联红璞公寓16天前维护,独栋·世联红璞公寓西溪社区朝南大户型1室1厅,https://hz.lianjia.com/zufang/xixi/pg1/
0,,翡翠城,余杭翡翠城翡翠城二期,,5.527,--180.98㎡南4室2厅2卫,30.244680107694965,,/zufang/HZ2813102556870615040.html,120.03121104359761,5000,4天前维护,整租·翡翠城二期4室2厅南,https://hz.lianjia.com/zufang/feicuicheng1/pg1/
0,,西溪,西湖西溪西溪蝶园二期,,7.723,--136.95㎡南3室2厅2卫,30.29626610167819,,/zufang/HZ2751276751014871040.html,120.07085676914443,9800,2天前维护,整租·西溪蝶园二期3室2厅南,https://hz.lianjia.com/zufang/xixi/pg1/
0,,翡翠城,余杭翡翠城翡翠城一期,,5.262,--139.05㎡南3室2厅2卫,30.246105505005875,,/zufang/HZ2813763751642677248.html,120.02891632217238,4700,今天维护,整租·翡翠城一期3室2厅南,https://hz.lianjia.com/zufang/feicuicheng1/pg1/
1,,西溪,冠寓,,1128.431,20.00㎡1间在租1室0厅1卫,40.01876933180148,,/apartment/24620.html,116.48617698581864,,冠寓10天前维护,独栋·冠寓西溪店精选温馨单间开间,https://hz.lianjia.com/zufang/xixi/pg1/
0,,翡翠城,余杭翡翠城绿城翡翠湾,,5.19,--110.00㎡南3室2厅2卫,30.248029348772224,,/zufang/HZ2813781736927010816.html,120.03019092786047,4500,今天维护,整租·绿城翡翠湾3室2厅南,https://hz.lianjia.com/zufang/feicuicheng1/pg1/
0,,西溪,余杭西溪西溪玫瑰,,6.046,--232.26㎡南5室3厅3卫,30.256060786574146,,/zufang/HZ2707926005334949888.html,120.04806630920353,10000,链家1天前维护,整租·西溪玫瑰5室3厅南,https://hz.lianjia.com/zufang/xixi/pg1/
0,,翡翠城,余杭翡翠城翡翠城二期,,5.527,--151.00㎡西南3室2厅2卫,30.244680107694965,,/zufang/HZ2813847679187025920.html,120.03121104359761,8800,链家2天前维护,整租·翡翠城二期3室2厅西南,https://hz.lianjia.com/zufang/feicuicheng1/pg1/
0,,西溪,余杭西溪西溪玫瑰,,6.046,--232.15㎡南北5室2厅3卫,30.256060786574146,,/zufang/HZ2712298579888193536.html,120.04806630920353,10000,3天前维护,整租·西溪玫瑰5室2厅复式南/北,https://hz.lianjia.com/zufang/xixi/pg1/
1,,翡翠城,和居公寓,,5.992,38.00㎡1间在租1室1厅1卫,30.250824415532687,,/apartment/2656.html,120.04375480207784,,和居公寓3天前维护,独栋·和居公寓五常店近阿里，恒生，可月付1室1厅,https://hz.lianjia.com/zufang/feicuicheng1/pg1/
0,,西溪,西湖西溪融创河滨之城水澜轩,,7.897,--89.00㎡南3室2厅1卫,30.304570041139915,,/zufang/HZ2725241223559790592.html,120.0700170331537,7500,1天前维护,整租·融创河滨之城水澜轩3室2厅南,https://hz.lianjia.com/zufang/xixi/pg1/
0,,翡翠城,余杭翡翠城西溪曼哈顿,,4.029,--71.00㎡南2室1厅1卫,30.260437016270405,,/zufang/HZ2816634195617783808.html,120.02660309565364,4200,链家1天前维护,整租·西溪曼哈顿2室1厅南,https://hz.lianjia.com/zufang/feicuicheng1/pg1/
0,,西溪,余杭西溪大华西溪风情,,4.889,--233.32㎡南4室2厅3卫,30.28460189164612,,/zufang/HZ2725285191265558528.html,120.0430749644679,15000,1天前维护,整租·大华西溪风情4室2厅南,https://hz.lianjia.com/zufang/xixi/pg1/
0,,翡翠城,余杭翡翠城翡翠城二期,,5.527,精选--28.00㎡南3室1厅3卫,30.244680107694965,,/zufang/HZ2724730493974355968.html,120.03121104359761,1888,鹿汀公寓1个月前维护,合租·翡翠城二期3居室南卧,https://hz.lianjia.com/zufang/feicuicheng1/pg1/
0,,西溪,西湖西溪坤和和家园,,7.935,--187.00㎡南北5室1厅1卫,30.247432061206066,,/zufang/HZ2731977922872623104.html,120.06502101722941,9800,链家2天前维护,整租·坤和和家园5室1厅南/北,https://hz.lianjia.com/zufang/xixi/pg1/
0,,翡翠城,余杭翡翠城华盛达堂巢,,5.677,--46.00㎡南1室1厅1卫,30.25098008896041,,/zufang/HZ2793514757876097024.html,120.03986001887823,3600,链家2天前维护,整租·华盛达堂巢1室1厅南,https://hz.lianjia.com/zufang/feicuicheng1/pg1/
0,,西溪,西湖西溪西溪雅苑,,8.486,--15.00㎡北5室1厅3卫,30.271938741100662,,/zufang/HZ2264955991185965056.html,120.0800062802552,1300,驻客公寓19天前维护,合租·西溪雅苑5居室北卧,https://hz.lianjia.com/zufang/xixi/pg1/
0,,翡翠城,余杭翡翠城翡翠城三期,,5.24,精选--28.00㎡南5室4厅5卫,30.246499074778125,,/zufang/HZ2797641515286142976.html,120.02908295784447,1880,鹿汀公寓1个月前维护,合租·翡翠城三期5居室南卧,https://hz.lianjia.com/zufang/feicuicheng1/pg1/
0,,西溪,西湖西溪西溪诚园正信苑,,9.044,--169.19㎡南3室2厅2卫,30.296804544335032,,/zufang/HZ2731661568558776320.html,120.08477412657996,18000,链家今天维护,整租·西溪诚园正信苑3室2厅南,https://hz.lianjia.com/zufang/xixi/pg1/
0,,翡翠城,余杭翡翠城金都雅苑,,4.789,--205.94㎡南北4室2厅2卫,30.244193322904515,,/zufang/HZ2794748261444370432.html,120.01761060834599,7000,链家6天前维护,整租·金都雅苑4室2厅跃层南/北,https://hz.lianjia.com/zufang/feicuicheng1/pg1/
0,,闲林,余杭闲林新西湖小镇,,7.364,--89.00㎡南2室2厅1卫,30.245083978886594,,/zufang/HZ2791947749535522816.html,119.92811341852295,2700,5天前维护,整租·新西湖小镇2室2厅南,https://hz.lianjia.com/zufang/xianlin1/pg1/
1,,西溪,welike青年公寓,,185.109,45.00㎡1间在租1室1厅1卫,31.375851304440957,,/apartment/20725.html,121.45305960479573,,welike青年公寓2个月前维护,独栋·welike青年公寓西湖店精装淡雅日式和风一居1室1厅,https://hz.lianjia.com/zufang/xixi/pg1/
0,,翡翠城,余杭翡翠城翡翠城二期,,5.527,精选--28.00㎡南4室4厅4卫,30.244680107694965,,/zufang/HZ2724731263058444288.html,120.03121104359761,1988,鹿汀公寓5天前维护,合租·翡翠城二期4居室南卧,https://hz.lianjia.com/zufang/feicuicheng1/pg1/
1,,闲林,柚米国际社区,,1137.634,23.00㎡1间在租1室1厅1卫,40.134496460827265,,/apartment/17959.html,116.61036592596209,,柚米国际社区8天前维护,独栋·柚米国际社区杭州西溪湿地店舒适特惠一居1室1厅,https://hz.lianjia.com/zufang/xianlin1/pg1/
0,,西溪,西湖西溪绿城西溪世纪广场,,14.835,--66.72㎡南3室2厅2卫,30.274284381559763,,/zufang/HZ2735321313790410752.html,120.14658230668566,7500,链家1天前维护,整租·绿城西溪世纪广场3室2厅南,https://hz.lianjia.com/zufang/xixi/pg1/
0,,翡翠城,余杭翡翠城华元西溪欢乐城,,4.674,--34.84㎡南1室1厅1卫,30.24684896523623,,/zufang/HZ2794775177408823296.html,120.0201803909184,2200,今天维护,整租·华元西溪欢乐城1室1厅南,https://hz.lianjia.com/zufang/feicuicheng1/pg1/
0,,闲林,余杭闲林绿城桃源小镇,,5.954,--15.00㎡南4室1厅2卫,30.230505491386737,,/zufang/HZ2815996719048179712.html,119.97271015488802,900,1天前维护,合租·绿城桃源小镇4居室南卧,https://hz.lianjia.com/zufang/xianlin1/pg1/
0,,西溪,西湖西溪西溪蝶园二期,,7.723,--253.04㎡南5室2厅4卫,30.29626610167819,,/zufang/HZ2731209510751846400.html,120.07085676914443,25000,链家4天前维护,整租·西溪蝶园二期5室2厅复式南,https://hz.lianjia.com/zufang/xixi/pg1/
0,,翡翠城,余杭翡翠城翡翠城一期,,5.262,精选--28.00㎡南3室2厅3卫,30.246105505005875,,/zufang/HZ2739095213212434432.html,120.02891632217238,1680,鹿汀公寓6天前维护,合租·翡翠城一期3居室南卧,https://hz.lianjia.com/zufang/feicuicheng1/pg1/
1,,闲林,柚米国际社区,,1137.634,20.00㎡1间在租1室1厅1卫,40.134496460827265,,/apartment/17959.html,116.61036592596209,,柚米国际社区4天前维护,独栋·柚米国际社区杭州西溪湿地店特价小户型1室1厅,https://hz.lianjia.com/zufang/xianlin1/pg1/
0,,西溪,西湖西溪坤和和家园,,7.935,--281.05㎡南北5室2厅4卫,30.247432061206066,,/zufang/HZ2733957070495170560.html,120.06502101722941,23900,链家3天前维护,整租·坤和和家园5室2厅复式南/北,https://hz.lianjia.com/zufang/xixi/pg1/
0,,翡翠城,余杭翡翠城翡翠城二期,,5.527,精选--28.00㎡南4室4厅4卫,30.244680107694965,,/zufang/HZ2676818901761277952.html,120.03121104359761,2088,鹿汀公寓5天前维护,合租·翡翠城二期4居室南卧,https://hz.lianjia.com/zufang/feicuicheng1/pg1/
0,,闲林,余杭闲林闲林山水丹枫苑,,5.481,--146.99㎡南3室2厅2卫,30.239727050414576,,/zufang/HZ2816492857304039424.html,120.02294968714455,4500,3天前维护,整租·闲林山水丹枫苑3室2厅南,https://hz.lianjia.com/zufang/xianlin1/pg1/
0,,西溪,西湖西溪龙湖西溪天街,,10.526,--48.00㎡北3室1厅2卫,30.286669207147614,,/zufang/HZ2735498427805728768.html,120.10175281936296,6500,1天前维护,整租·龙湖西溪天街3室1厅北,https://hz.lianjia.com/zufang/xixi/pg1/
0,,翡翠城,余杭翡翠城华元西溪欢乐城,,4.674,--34.84㎡南1室1厅1卫,30.24684896523623,,/zufang/HZ2794775177408823296.html,120.0201803909184,2200,今天维护,整租·华元西溪欢乐城1室1厅南,https://hz.lianjia.com/zufang/feicuicheng1/pg2/
0,,闲林,余杭闲林闲林山水海棠苑,,5.425,精选--15.00㎡南6室1厅4卫,30.242084075999973,,/zufang/HZ2739862061294567424.html,120.02588804446768,1690,友家8天前维护,合租·闲林山水海棠苑6居室跃层南卧,https://hz.lianjia.com/zufang/xianlin1/pg1/
0,,西溪,余杭西溪香港兴业耦园,,5.529,--191.00㎡南4室2厅2卫,30.273700900793585,,/zufang/HZ2745432887162568704.html,120.04920805550671,14500,链家1天前维护,整租·香港兴业耦园4室2厅跃层南,https://hz.lianjia.com/zufang/xixi/pg1/
0,,翡翠城,余杭翡翠城翡翠城三期,,5.24,精选--29.00㎡南5室4厅5卫,30.246499074778125,,/zufang/HZ2797645270027083776.html,120.02908295784447,1680,鹿汀公寓1个月前维护,合租·翡翠城三期5居室南卧,https://hz.lianjia.com/zufang/feicuicheng1/pg2/
0,,闲林,余杭闲林绿城桃源小镇品霞苑,,6.25,--124.00㎡南4室1厅2卫,30.22976806904107,,/zufang/HZ2813699587909623808.html,119.96634727729973,3000,6天前维护,整租·绿城桃源小镇品霞苑4室1厅南,https://hz.lianjia.com/zufang/xianlin1/pg1/
0,,西溪,西湖西溪中海西溪华府,,6.778,--88.87㎡南3室2厅1卫,30.29611525612445,,/zufang/HZ2744373580438708224.html,120.06078694403868,5300,链家今天维护,整租·中海西溪华府3室2厅南,https://hz.lianjia.com/zufang/xixi/pg1/
0,,翡翠城,余杭翡翠城爱丁郡,,5.296,--135.00㎡南4室2厅2卫,30.25763879434098,,/zufang/HZ2815969667791986688.html,120.04016032241022,6500,3天前维护,整租·爱丁郡4室2厅南,https://hz.lianjia.com/zufang/feicuicheng1/pg2/
0,,闲林,余杭闲林南湖大厦,,5.986,--44.00㎡北1室1厅1卫,30.249113941236114,,/zufang/HZ2791340735314796544.html,119.94235039305894,1800,1天前维护,整租·南湖大厦1室1厅北,https://hz.lianjia.com/zufang/xianlin1/pg1/
0,,西溪,余杭西溪香港兴业耦园,,5.529,--142.00㎡南4室2厅2卫,30.273700900793585,,/zufang/HZ2739668971484880896.html,120.04920805550671,3900,链家今天维护,整租·香港兴业耦园4室2厅南,https://hz.lianjia.com/zufang/xixi/pg1/
0,,翡翠城,余杭翡翠城翡翠城二期,,5.527,精选--23.00㎡南4室4厅4卫,30.244680107694965,,/zufang/HZ2724726073983516672.html,120.03121104359761,1688,鹿汀公寓5天前维护,合租·翡翠城二期4居室南卧,https://hz.lianjia.com/zufang/feicuicheng1/pg2/
0,,闲林,余杭闲林绿城桃源小镇,,5.954,--65.00㎡南2室1厅1卫,30.230505491386737,,/zufang/HZ2791363252696137728.html,119.97271015488802,2000,5天前维护,整租·绿城桃源小镇2室1厅南,https://hz.lianjia.com/zufang/xianlin1/pg1/
0,,西溪,西湖西溪坤和和家园,,7.935,精选--8.80㎡北6室1厅3卫,30.247432061206066,,/zufang/HZ2826108775075676160.html,120.06502101722941,1190,友家2天前维护,合租·坤和和家园6居室北卧,https://hz.lianjia.com/zufang/xixi/pg1/
0,,翡翠城,余杭翡翠城华元西溪欢乐城,,4.674,--41.00㎡南2室1厅1卫,30.24684896523623,,/zufang/HZ2821587230068580352.html,120.0201803909184,3000,1天前维护,整租·华元西溪欢乐城2室1厅南,https://hz.lianjia.com/zufang/feicuicheng1/pg2/
1,,未来科技城,,,,,,,/zufang/weilaikejicheng/ab200306003080,,,,精选公寓·方隅公寓,https://hz.lianjia.com/zufang/weilaikejicheng/pg1/
0,,闲林,余杭闲林中港罗兰小镇,,7.502,--20.00㎡东南南3室2厅2卫,30.242243741397246,,/zufang/HZ2791937238005719040.html,119.92861844588066,1200,链家1天前维护,合租·中港罗兰小镇3居室东南/南卧,https://hz.lianjia.com/zufang/xianlin1/pg1/
0,,西溪,余杭西溪香港兴业耦园,,5.529,--141.00㎡南4室2厅2卫,30.273700900793585,,/zufang/HZ2741245147970019328.html,120.04920805550671,6000,1天前维护,整租·香港兴业耦园4室2厅南,https://hz.lianjia.com/zufang/xixi/pg1/
0,,翡翠城,余杭翡翠城翡翠城一期,,5.262,精选--18.00㎡南3室2厅3卫,30.246105505005875,,/zufang/HZ2739097422487109632.html,120.02891632217238,1680,鹿汀公寓5天前维护,合租·翡翠城一期3居室南卧,https://hz.lianjia.com/zufang/feicuicheng1/pg2/
0,,未来科技城,余杭未来科技城合景映月台,,2.743,--118.52㎡南4室2厅2卫,30.27820381869327,,/zufang/HZ2825367068953034752.html,120.02064220978107,8000,链家2天前维护,整租·合景映月台4室2厅南,https://hz.lianjia.com/zufang/weilaikejicheng/pg1/
0,,闲林,余杭闲林东海闲湖城印象加州,,5.014,--88.00㎡南3室2厅1卫,30.236791959722076,,/zufang/HZ2813823228970549248.html,120.00060263080339,3800,1天前维护,整租·东海闲湖城印象加州3室2厅南,https://hz.lianjia.com/zufang/xianlin1/pg1/
0,,西溪,西湖西溪坤和和家园,,7.935,精选--10.70㎡北6室1厅3卫,30.247432061206066,,/zufang/HZ2826104703254282240.html,120.06502101722941,1230,友家2天前维护,合租·坤和和家园6居室北卧,https://hz.lianjia.com/zufang/xixi/pg1/
0,,翡翠城,余杭翡翠城华元西溪欢乐城,,4.674,--44.00㎡南1室1厅1卫,30.24684896523623,,/zufang/HZ2820362088114036736.html,120.0201803909184,2600,1天前维护,整租·华元西溪欢乐城1室1厅南,https://hz.lianjia.com/zufang/feicuicheng1/pg2/
1,,未来科技城,泊寓,,1108.803,22.00㎡1间在租1室1厅1卫,39.76637109708715,,/apartment/1581.html,116.22386602774982,,泊寓13天前维护,独栋·泊寓海港城社区店阿里旁精致一居1室1厅,https://hz.lianjia.com/zufang/weilaikejicheng/pg1/
0,,闲林,余杭闲林竹海水韵,,4.235,精选--15.00㎡南5室1厅2卫,30.24352799701941,,/zufang/HZ2738481847138000896.html,119.98671186321094,1230,友家8天前维护,合租·竹海水韵5居室南卧,https://hz.lianjia.com/zufang/xianlin1/pg1/
0,,西溪,西湖西溪坤和和家园,,7.935,--180.60㎡南4室2厅3卫,30.247432061206066,,/zufang/HZ2743571714356019200.html,120.06502101722941,9000,链家今天维护,整租·坤和和家园4室2厅南,https://hz.lianjia.com/zufang/xixi/pg1/
0,,翡翠城,余杭翡翠城西溪曼哈顿,,4.029,--46.41㎡西1室1厅1卫,30.260437016270405,,/zufang/HZ2820964438822363136.html,120.02660309565364,2900,链家4天前维护,整租·西溪曼哈顿1室1厅西,https://hz.lianjia.com/zufang/feicuicheng1/pg2/
0,,未来科技城,余杭未来科技城禹航路,,0.625,--73.21㎡南2室1厅1卫,30.280392902141845,,/zufang/HZ2814468263139360768.html,119.98588335603908,2600,1天前维护,整租·禹航路2室1厅南,https://hz.lianjia.com/zufang/weilaikejicheng/pg1/
0,,闲林,余杭闲林赞成乐山红叶,,4.539,--20.00㎡南5室4厅5卫,30.240708072335345,,/zufang/HZ2816654033560289280.html,119.98736798555542,1300,今天维护,合租·赞成乐山红叶5居室南卧,https://hz.lianjia.com/zufang/xianlin1/pg1/
0,,西溪,西湖西溪坤和和家园,,7.935,精选--16.00㎡南6室1厅3卫,30.247432061206066,,/zufang/HZ2826098637208027136.html,120.06502101722941,1390,友家2天前维护,合租·坤和和家园6居室南卧,https://hz.lianjia.com/zufang/xixi/pg1/
0,,翡翠城,余杭翡翠城翡翠城梧桐郡,,4.277,--127.58㎡南4室2厅2卫,30.253900245429797,,/zufang/HZ2806477402958733312.html,120.02354840776695,6500,2天前维护,整租·翡翠城梧桐郡4室2厅南,https://hz.lianjia.com/zufang/feicuicheng1/pg2/
1,,未来科技城,方隅公寓,,173.751,43.00㎡2间在租1室0厅1卫,31.26116388182826,,/apartment/26260.html,121.40897696867404,,方隅公寓3天前维护,独栋·方隅公寓杭州方隅公寓全球阿里旁一室户型开间,https://hz.lianjia.com/zufang/weilaikejicheng/pg1/
0,,闲林,余杭闲林闲林山水紫薇苑,,5.25,精选--16.00㎡南4室1厅2卫,30.239879699541646,,/zufang/HZ2739855348939890688.html,120.01852930539104,1190,友家8天前维护,合租·闲林山水紫薇苑4居室南卧,https://hz.lianjia.com/zufang/xianlin1/pg1/
0,,西溪,西湖西溪华元和庄,,8.602,--400.00㎡东南5室3厅4卫,30.261530594509043,,/zufang/HZ2347041383699202048.html,120.07890522719163,20000,今天维护,整租·华元和庄5室3厅东南,https://hz.lianjia.com/zufang/xixi/pg1/
0,,翡翠城,余杭翡翠城翡翠城二期,,5.527,--180.00㎡南北4室2厅2卫,30.244680107694965,,/zufang/HZ2806534459317829632.html,120.03121104359761,10000,链家2天前维护,整租·翡翠城二期4室2厅南/北,https://hz.lianjia.com/zufang/feicuicheng1/pg2/
0,,未来科技城,余杭未来科技城众安学君里,,3.832,--89.90㎡南北3室2厅2卫,30.252119086759578,,/zufang/HZ2825982860962299904.html,119.97109302530896,3800,今天维护,整租·众安学君里3室2厅南/北,https://hz.lianjia.com/zufang/weilaikejicheng/pg1/
0,,闲林,余杭闲林东海闲湖城印象加州,,5.014,--118.00㎡南3室2厅2卫,30.236791959722076,,/zufang/HZ2816598149501042688.html,120.00060263080339,4500,1天前维护,整租·东海闲湖城印象加州3室2厅南,https://hz.lianjia.com/zufang/xianlin1/pg1/
1,,西溪,氧气公寓,,1526.421,25.00㎡1间在租1室1厅1卫,30.62618404247885,,/apartment/1838.html,104.05963614582176,,氧气公寓1天前维护,独栋·氧气公寓骆家庄文新地铁站店小loft户型1室1厅,https://hz.lianjia.com/zufang/xixi/pg1/
0,,翡翠城,余杭翡翠城西溪曼哈顿,,4.029,--52.00㎡西1室1厅1卫,30.260437016270405,,/zufang/HZ2808150957710917632.html,120.02660309565364,3200,今天维护,整租·西溪曼哈顿1室1厅西,https://hz.lianjia.com/zufang/feicuicheng1/pg2/
1,,未来科技城,优家社区,,183.539,31.00㎡1间在租1室0厅1卫,31.26881085643081,,/apartment/23519.html,121.53175601831957,,优家社区1个月前维护,独栋·优家社区杭州余杭区文一西路1500号科创中心7号楼拎包入住高颜值邻居开间,https://hz.lianjia.com/zufang/weilaikejicheng/pg1/
0,,闲林,余杭闲林雅居乐国际花园,,4.941,--89.00㎡南3室2厅2卫,30.237128702458453,,/zufang/HZ2816479379973218304.html,119.98677582256325,3200,4天前维护,整租·雅居乐国际花园3室2厅南,https://hz.lianjia.com/zufang/xianlin1/pg1/
0,,西溪,余杭西溪百家乐西园,,4.892,--179.00㎡南4室1厅3卫,30.274497250190596,,/zufang/HZ2492007335816331264.html,120.04263209985147,5500,今天维护,整租·百家乐西园4室1厅南,https://hz.lianjia.com/zufang/xixi/pg1/
1,,翡翠城,联寓E家,,18.553,42.00㎡1间在租1室1厅1卫,30.233281481865312,,/apartment/37583.html,120.17729537207181,,联寓E家今天维护,独栋·联寓E家西溪青年社区一室一厅欢乐多1室1厅,https://hz.lianjia.com/zufang/feicuicheng1/pg2/
0,,未来科技城,余杭未来科技城湖山帝景湾,,5.41,--89.00㎡南3室2厅1卫,30.257665076056433,,/zufang/HZ2825329701823201280.html,119.9430760442499,2000,2天前维护,整租·湖山帝景湾3室2厅南,https://hz.lianjia.com/zufang/weilaikejicheng/pg1/
0,,闲林,余杭闲林竹海水韵春风里,,4.035,--88.32㎡南3室2厅1卫,30.245074619202402,,/zufang/HZ2793470861498122240.html,119.98993929524718,3180,今天维护,整租·竹海水韵春风里3室2厅南,https://hz.lianjia.com/zufang/xianlin1/pg1/
1,,西溪,氧气公寓,,1526.421,30.00㎡1间在租1室0厅1卫,30.62618404247885,,/apartment/1838.html,104.05963614582176,,氧气公寓6天前维护,独栋·氧气公寓骆家庄文新地铁站店一室一厨一卫整租单间开间,https://hz.lianjia.com/zufang/xixi/pg1/
0,,翡翠城,余杭翡翠城华立江南水乡,,4.792,--202.00㎡南北4室2厅3卫,30.25651358711302,,/zufang/HZ2821815285089583104.html,120.03311221737893,12500,2天前维护,整租·华立江南水乡4室2厅南/北,https://hz.lianjia.com/zufang/feicuicheng1/pg2/
0,,未来科技城,余杭未来科技城海创绿谷,,3.745,--45.09㎡北1室1厅1卫,30.29482124890072,,/zufang/HZ2813823779892379648.html,120.02803203022835,3500,2天前维护,整租·海创绿谷1室1厅北,https://hz.lianjia.com/zufang/weilaikejicheng/pg1/
0,,闲林,余杭闲林竹海水韵,,4.235,--161.00㎡东南北4室2厅2卫,30.24352799701941,,/zufang/HZ2793478360217419776.html,119.98671186321094,6500,6天前维护,整租·竹海水韵4室2厅东/南/北,https://hz.lianjia.com/zufang/xianlin1/pg1/
1,,西溪,氧气公寓,,1526.421,25.00㎡2间在租1室0厅1卫,30.62618404247885,,/apartment/1838.html,104.05963614582176,,氧气公寓1天前维护,独栋·氧气公寓骆家庄文新地铁站店一室一卫朝南阳光房开间,https://hz.lianjia.com/zufang/xixi/pg1/
1,,翡翠城,联寓E家,,18.553,42.00㎡2间在租1室1厅1卫,30.233281481865312,,/apartment/37583.html,120.17729537207181,,联寓E家今天维护,独栋·联寓E家西溪青年社区标准一室一厅1室1厅,https://hz.lianjia.com/zufang/feicuicheng1/pg2/
0,,未来科技城,余杭未来科技城保亿丽景山,,3.069,--89.00㎡南北3室2厅1卫,30.256212942140287,,/zufang/HZ2824439646396882944.html,119.97900287481596,3800,今天维护,整租·保亿丽景山3室2厅南/北,https://hz.lianjia.com/zufang/weilaikejicheng/pg1/
0,,闲林,余杭闲林南湖大厦,,5.986,--44.60㎡南1室1厅1卫,30.249113941236114,,/zufang/HZ2815054221358415872.html,119.94235039305894,1800,4天前维护,整租·南湖大厦1室1厅南,https://hz.lianjia.com/zufang/xianlin1/pg1/
1,,西溪,氧气公寓,,1526.421,30.00㎡1间在租1室0厅1卫,30.62618404247885,,/apartment/1838.html,104.05963614582176,,氧气公寓12天前维护,独栋·氧气公寓骆家庄文新地铁站店一室一卫一厨朝南房型开间,https://hz.lianjia.com/zufang/xixi/pg1/
0,,翡翠城,余杭翡翠城翡翠城二期,,5.527,--127.95㎡南3室2厅1卫,30.244680107694965,,/zufang/HZ2822438361732751360.html,120.03121104359761,5000,3天前维护,整租·翡翠城二期3室2厅南,https://hz.lianjia.com/zufang/feicuicheng1/pg2/
0,,未来科技城,余杭未来科技城飞鸟客,,3.227,--34.80㎡西2室2厅2卫,30.286964066558873,,/zufang/HZ2823993393053704192.html,120.0252717170573,6800,今天维护,整租·飞鸟客2室2厅西,https://hz.lianjia.com/zufang/weilaikejicheng/pg1/
0,,闲林,余杭闲林绿城桃源小镇品霞苑,,6.25,--124.40㎡东4室2厅2卫,30.22976806904107,,/zufang/HZ2792728620282953728.html,119.96634727729973,2500,3天前维护,整租·绿城桃源小镇品霞苑4室2厅东,https://hz.lianjia.com/zufang/xianlin1/pg1/
1,,西溪,氧气公寓,,1526.421,40.00㎡1间在租1室1厅1卫,30.62618404247885,,/apartment/1838.html,104.05963614582176,,氧气公寓1天前维护,独栋·氧气公寓骆家庄文新地铁站店LOFT房型（复式）1室1厅,https://hz.lianjia.com/zufang/xixi/pg1/
0,,翡翠城,余杭翡翠城华元蒙卡岸,,4.457,--87.26㎡南3室1厅2卫,30.247045280842684,,/zufang/HZ2822477779667525632.html,120.0163920569217,3600,3天前维护,整租·华元蒙卡岸3室1厅错层南,https://hz.lianjia.com/zufang/feicuicheng1/pg2/
0,,未来科技城,余杭未来科技城西园凤都苑,,3.927,--120.00㎡东南4室2厅2卫,30.267318329708903,,/zufang/HZ2824667084594610176.html,119.9547603040182,5000,2天前维护,整租·西园凤都苑4室2厅东南,https://hz.lianjia.com/zufang/weilaikejicheng/pg1/
0,,闲林,余杭闲林融创金成西溪海,,3.296,--89.00㎡东南北3室2厅1卫,30.2516668117035,,/zufang/HZ2815090220457279488.html,119.99236480995467,4200,今天维护,整租·融创金成西溪海3室2厅东/南/北,https://hz.lianjia.com/zufang/xianlin1/pg1/
1,,西溪,氧气公寓,,1526.421,40.00㎡1间在租1室1厅1卫,30.62618404247885,,/apartment/1838.html,104.05963614582176,,氧气公寓12天前维护,独栋·氧气公寓骆家庄文新地铁站店LOFT两层大空间1室1厅,https://hz.lianjia.com/zufang/xixi/pg1/
0,,翡翠城,余杭翡翠城华元西溪欢乐城,,4.674,--45.00㎡西2室1厅1卫,30.24684896523623,,/zufang/HZ2811439236597678080.html,120.0201803909184,2700,3天前维护,整租·华元西溪欢乐城2室1厅西,https://hz.lianjia.com/zufang/feicuicheng1/pg2/
1,,未来科技城,途步酒店式公寓,,168.367,30.00㎡2间在租1室0厅1卫,31.327793803870186,,/apartment/36871.html,121.26641875881816,,途步酒店式公寓20天前维护,独栋·途步酒店式公寓余勋工业园店科技城精品公寓开间,https://hz.lianjia.com/zufang/weilaikejicheng/pg1/
0,,闲林,余杭闲林岸上蓝山,,5.208,精选--20.00㎡南4室1厅2卫,30.239150070431783,,/zufang/HZ2739885813470076928.html,120.01593203467006,1360,友家8天前维护,合租·岸上蓝山4居室南卧,https://hz.lianjia.com/zufang/xianlin1/pg1/
0,,西溪,西湖西溪龙湖西溪天街,,10.526,--68.00㎡南北3室2厅2卫,30.286669207147614,,/zufang/HZ2827400739440574464.html,120.10175281936296,8000,1天前维护,整租·龙湖西溪天街3室2厅南/北,https://hz.lianjia.com/zufang/xixi/pg2/
0,,翡翠城,余杭翡翠城西溪华东园,,3.923,--231.74㎡南5室2厅3卫,30.257420273689924,,/zufang/HZ2826747842948251648.html,120.02236435127425,16000,链家今天维护,整租·西溪华东园5室2厅南,https://hz.lianjia.com/zufang/feicuicheng1/pg2/
0,,未来科技城,余杭未来科技城禹航路,,0.625,--98.00㎡南3室2厅1卫,30.280392902141845,,/zufang/HZ2824672937041739776.html,119.98588335603908,3600,5天前维护,整租·禹航路3室2厅南,https://hz.lianjia.com/zufang/weilaikejicheng/pg1/
0,,闲林,余杭闲林新时代城市家园,,5.435,--92.28㎡南2室2厅1卫,30.232512097504376,,/zufang/HZ2817397940266737664.html,119.98909506772891,2900,1天前维护,整租·新时代城市家园2室2厅南,https://hz.lianjia.com/zufang/xianlin1/pg1/
0,,西溪,西湖西溪坤和和家园,,7.935,精选--14.56㎡南7室1厅3卫,30.247432061206066,,/zufang/HZ2175251910964559872.html,120.06502101722941,1430,自如今天维护,合租·坤和和家园7居室南卧,https://hz.lianjia.com/zufang/xixi/pg2/
0,,翡翠城,余杭翡翠城邦帮金座,,30.974,--41.72㎡南2室1厅1卫,30.425801099184763,,/zufang/HZ2818636361505185792.html,120.26829021684108,3500,4天前维护,整租·邦帮金座2室1厅南,https://hz.lianjia.com/zufang/feicuicheng1/pg2/
1,,未来科技城,途步酒店式公寓,,168.367,18.00㎡1间在租1室0厅1卫,31.327793803870186,,/apartment/36871.html,121.26641875881816,,途步酒店式公寓20天前维护,独栋·途步酒店式公寓余勋工业园店精装地铁公寓房开间,https://hz.lianjia.com/zufang/weilaikejicheng/pg1/
0,,闲林,余杭闲林爵士风情花园,,4.459,精选--10.00㎡北4室1厅2卫,30.241357115431928,,/zufang/HZ2826087002728824832.html,119.99631501860425,990,友家2天前维护,合租·爵士风情花园4居室北卧,https://hz.lianjia.com/zufang/xianlin1/pg1/
0,,西溪,西湖西溪中海西溪华府,,6.778,--139.75㎡南3室2厅2卫,30.29611525612445,,/zufang/HZ2809336941794041856.html,120.06078694403868,11000,链家2天前维护,整租·中海西溪华府3室2厅南,https://hz.lianjia.com/zufang/xixi/pg2/
0,,翡翠城,余杭翡翠城华元蒙卡岸,,4.457,--60.00㎡北2室1厅1卫,30.247045280842684,,/zufang/HZ2827558517035515904.html,120.0163920569217,2600,今天维护,整租·华元蒙卡岸2室1厅北,https://hz.lianjia.com/zufang/feicuicheng1/pg2/
0,,未来科技城,余杭未来科技城合景叠彩园,,4.115,--87.93㎡南3室1厅2卫,30.28006925211498,,/zufang/HZ2825155190565642240.html,120.03513762681227,6900,今天维护,整租·合景叠彩园3室1厅南,https://hz.lianjia.com/zufang/weilaikejicheng/pg1/
0,,闲林,余杭闲林恒厚阳光城,,6.233,--83.60㎡东南3室1厅1卫,30.24629651835819,,/zufang/HZ2817336200799993856.html,119.94162429271523,3300,今天维护,整租·恒厚阳光城3室1厅东南,https://hz.lianjia.com/zufang/xianlin1/pg1/
0,,西溪,西湖西溪西溪雅苑,,8.486,精选--15.00㎡北5室1厅3卫,30.271938741100662,,/zufang/HZ2264955991185965056.html,120.0800062802552,1300,驻客公寓19天前维护,合租·西溪雅苑5居室北卧,https://hz.lianjia.com/zufang/xixi/pg2/
0,,翡翠城,余杭翡翠城金都雅苑,,4.789,--243.00㎡南4室2厅3卫,30.244193322904515,,/zufang/HZ2828241497231998976.html,120.01761060834599,11000,今天维护,整租·金都雅苑4室2厅南,https://hz.lianjia.com/zufang/feicuicheng1/pg2/
0,,未来科技城,余杭未来科技城中南未来里,,5.628,--30.00㎡北2室2厅2卫,30.293021116548257,,/zufang/HZ2824785401531867136.html,120.0493327403115,4500,2天前维护,合租·中南未来里2居室北卧,https://hz.lianjia.com/zufang/weilaikejicheng/pg1/
0,,闲林,余杭闲林爵士风情花园,,4.459,精选--10.00㎡北4室1厅2卫,30.241357115431928,,/zufang/HZ2114290225634082816.html,119.99631501860425,990,自如3天前维护,合租·爵士风情花园4居室北卧,https://hz.lianjia.com/zufang/xianlin1/pg1/
0,,西溪,西湖西溪西溪蝶园二期,,7.723,--88.38㎡南1室1厅1卫,30.29626610167819,,/zufang/HZ2809280369567219712.html,120.07085676914443,7000,1天前维护,整租·西溪蝶园二期1室1厅南,https://hz.lianjia.com/zufang/xixi/pg2/
1,,翡翠城,联寓E家,,18.553,41.00㎡1间在租1室1厅1卫,30.233281481865312,,/apartment/37583.html,120.17729537207181,,联寓E家今天维护,独栋·联寓E家西溪青年社区温馨loft户型1室1厅,https://hz.lianjia.com/zufang/feicuicheng1/pg2/
0,,未来科技城,余杭未来科技城奥克斯时代未来之城,,1.323,--128.00㎡南3室2厅2卫,30.28766706329417,,/zufang/HZ2815821869880713216.html,120.00395600527213,6000,1天前维护,整租·奥克斯时代未来之城3室2厅南,https://hz.lianjia.com/zufang/weilaikejicheng/pg1/
0,,闲林,余杭闲林东海·闲湖城,,5.161,--200.60㎡南北4室2厅2卫,30.235297001353228,,/zufang/HZ2817273532412084224.html,119.99933584037322,5000,4天前维护,整租·东海·闲湖城4室2厅南/北,https://hz.lianjia.com/zufang/xianlin1/pg1/
0,,西溪,余杭西溪远洋西溪公馆,,5.621,精选--56.00㎡南5室4厅4卫,30.28962197090435,,/zufang/HZ2825930061730299904.html,120.05005111522783,4500,速诚公寓2天前维护,合租·远洋西溪公馆5居室南卧,https://hz.lianjia.com/zufang/xixi/pg2/
0,,翡翠城,余杭翡翠城翡翠城三期,,5.24,--165.74㎡南北4室2厅3卫,30.246499074778125,,/zufang/HZ2820225793777467392.html,120.02908295784447,7200,链家2天前维护,整租·翡翠城三期4室2厅南/北,https://hz.lianjia.com/zufang/feicuicheng1/pg2/
0,,未来科技城,余杭未来科技城湖山帝景湾,,5.41,--89.00㎡南2室2厅1卫,30.257665076056433,,/zufang/HZ2815760584749096960.html,119.9430760442499,3500,4天前维护,整租·湖山帝景湾2室2厅南,https://hz.lianjia.com/zufang/weilaikejicheng/pg1/
1,,闲林,美好生活公寓,,7.643,90.00㎡3间在租3室2厅2卫,30.213455822781352,,/apartment/38361.html,120.00500127356354,,美好生活公寓2天前维护,独栋·美好生活公寓绿城闲林店日系实木大三居3室2厅,https://hz.lianjia.com/zufang/xianlin1/pg1/
0,,西溪,西湖西溪西溪君逸汇,,7.587,--62.00㎡南1室1厅1卫,30.247408038594696,,/zufang/HZ2809372224841596928.html,120.06086303051538,2800,4天前维护,整租·西溪君逸汇1室1厅南,https://hz.lianjia.com/zufang/xixi/pg2/
1,,翡翠城,联寓E家,,18.553,27.00㎡2间在租1室0厅1卫,30.233281481865312,,/apartment/37583.html,120.17729537207181,,联寓E家今天维护,独栋·联寓E家西溪青年社区独门独户大开间开间,https://hz.lianjia.com/zufang/feicuicheng1/pg2/
0,,未来科技城,余杭未来科技城万科星空,,4.184,--111.86㎡南3室2厅2卫,30.296109643262117,,/zufang/HZ2815779131709726720.html,120.03236563566959,8500,2天前维护,整租·万科星空3室2厅南,https://hz.lianjia.com/zufang/weilaikejicheng/pg1/
0,,闲林,余杭闲林新明半岛,,5.023,--160.00㎡东南4室2厅2卫,30.24678805038071,,/zufang/HZ2794163751786921984.html,119.95857199395812,4800,今天维护,整租·新明半岛4室2厅东南,https://hz.lianjia.com/zufang/xianlin1/pg1/
0,,西溪,余杭西溪大华西溪风情澄品,,4.606,--89.00㎡南4室2厅1卫,30.288314389601695,,/zufang/HZ2809450875028766720.html,120.03958567637548,7300,今天维护,整租·大华西溪风情澄品4室2厅南,https://hz.lianjia.com/zufang/xixi/pg2/
0,,翡翠城,余杭翡翠城翡翠城三期,,5.24,--84.50㎡南3室1厅1卫,30.246499074778125,,/zufang/HZ2827611503031754752.html,120.02908295784447,5000,今天维护,整租·翡翠城三期3室1厅南,https://hz.lianjia.com/zufang/feicuicheng1/pg2/
0,,未来科技城,余杭未来科技城华夏四季,,3.227,--128.27㎡南4室1厅2卫,30.286964066558873,,/zufang/HZ2826120444434980864.html,120.0252717170573,7700,2天前维护,整租·华夏四季4室1厅南,https://hz.lianjia.com/zufang/weilaikejicheng/pg1/
1,,闲林,美好生活公寓,,7.643,91.00-93.00㎡3间在租3室2厅2卫,30.213455822781352,,/apartment/38361.html,120.00500127356354,,美好生活公寓2天前维护,独栋·美好生活公寓绿城闲林店豪华超大三居室3室2厅,https://hz.lianjia.com/zufang/xianlin1/pg1/
0,,西溪,西湖西溪融创河滨之城雨澜轩,,7.541,--89.00㎡南3室2厅2卫,30.303798024940505,,/zufang/HZ2810122654495801344.html,120.06640395856203,7000,2天前维护,整租·融创河滨之城雨澜轩3室2厅南,https://hz.lianjia.com/zufang/xixi/pg2/
1,,翡翠城,联寓E家,,18.553,27.00㎡2间在租1室0厅1卫,30.233281481865312,,/apartment/37583.html,120.17729537207181,,联寓E家今天维护,独栋·联寓E家西溪青年社区高性价比单身公寓开间,https://hz.lianjia.com/zufang/feicuicheng1/pg2/
0,,未来科技城,余杭未来科技城景瑞御蓝湾,,4.382,--88.71㎡南3室2厅1卫,30.25760572772153,,/zufang/HZ2826061371647729664.html,119.95585982996239,3300,1天前维护,整租·景瑞御蓝湾3室2厅南,https://hz.lianjia.com/zufang/weilaikejicheng/pg1/
1,,闲林,美好生活公寓,,7.643,70.00㎡2间在租2室2厅1卫,30.213455822781352,,/apartment/38361.html,120.00500127356354,,美好生活公寓2天前维护,独栋·美好生活公寓绿城闲林店米兰风情两居2室2厅,https://hz.lianjia.com/zufang/xianlin1/pg1/
0,,西溪,西湖西溪坤和西溪里,,7.286,--137.21㎡南北3室2厅2卫,30.297655428879224,,/zufang/HZ2823412855913848832.html,120.06578655318502,8500,链家1天前维护,整租·坤和西溪里3室2厅南/北,https://hz.lianjia.com/zufang/xixi/pg2/
0,,翡翠城,余杭翡翠城翡翠城二期,,5.527,--89.00㎡南北2室2厅1卫,30.244680107694965,,/zufang/HZ2820978449869438976.html,120.03121104359761,5200,2天前维护,整租·翡翠城二期2室2厅南/北,https://hz.lianjia.com/zufang/feicuicheng1/pg2/
0,,未来科技城,余杭未来科技城欧美金融城,,1.901,--45.00㎡南1室1厅1卫,30.287634006890965,,/zufang/HZ2812364957910843392.html,120.01069697964955,4500,未莱公寓6天前维护,整租·欧美金融城1室1厅南,https://hz.lianjia.com/zufang/weilaikejicheng/pg1/
1,,闲林,美好生活公寓,,7.643,45.00-48.00㎡3间在租1室1厅1卫,30.213455822781352,,/apartment/38361.html,120.00500127356354,,美好生活公寓今天维护,独栋·美好生活公寓绿城闲林店店长首推网红一居1室1厅,https://hz.lianjia.com/zufang/xianlin1/pg1/
0,,西溪,西湖西溪坤和和家园,,7.935,--180.00㎡南北4室2厅2卫,30.247432061206066,,/zufang/HZ2810707788710281216.html,120.06502101722941,8900,链家今天维护,整租·坤和和家园4室2厅南/北,https://hz.lianjia.com/zufang/xixi/pg2/
0,,翡翠城,余杭翡翠城西溪曼哈顿,,4.029,精选--76.00㎡北2室2厅1卫,30.260437016270405,,/zufang/HZ2520922289751728128.html,120.02660309565364,4500,爱租今天维护,整租·西溪曼哈顿2室2厅北,https://hz.lianjia.com/zufang/feicuicheng1/pg2/
0,,未来科技城,余杭未来科技城欧美金融城,,1.901,--48.00㎡北2室1厅1卫,30.287634006890965,,/zufang/HZ2826044922065592320.html,120.01069697964955,5000,链家3天前维护,整租·欧美金融城2室1厅北,https://hz.lianjia.com/zufang/weilaikejicheng/pg1/
0,,闲林,余杭闲林雅居乐国际花园,,4.941,--89.00㎡南北3室2厅2卫,30.237128702458453,,/zufang/HZ2814475741532790784.html,119.98677582256325,3500,4天前维护,整租·雅居乐国际花园3室2厅南/北,https://hz.lianjia.com/zufang/xianlin1/pg2/
0,,西溪,余杭西溪远洋西溪公馆,,5.621,精选--65.00㎡南5室4厅4卫,30.28962197090435,,/zufang/HZ2825311732745388032.html,120.05005111522783,5380,速诚公寓4天前维护,合租·远洋西溪公馆5居室南卧,https://hz.lianjia.com/zufang/xixi/pg2/
0,,翡翠城,余杭翡翠城翡翠城一期,,5.262,--152.00㎡南3室2厅2卫,30.246105505005875,,/zufang/HZ2807103924081786880.html,120.02891632217238,6500,今天维护,整租·翡翠城一期3室2厅南,https://hz.lianjia.com/zufang/feicuicheng1/pg2/
1,,未来科技城,FUNLIVE方隅,,1115.825,60.00-65.00㎡4间在租1室1厅1卫,39.909418963003894,,/apartment/27915.html,116.52553175021079,,FUNLIVE方隅今天维护,独栋·FUNLIVE方隅未来科技城服务式公寓阿里高档一室一厅1室1厅,https://hz.lianjia.com/zufang/weilaikejicheng/pg1/
1,,闲林,美好生活公寓,,7.643,70.00-73.00㎡2间在租2室2厅1卫,30.213455822781352,,/apartment/38361.html,120.00500127356354,,美好生活公寓2天前维护,独栋·美好生活公寓绿城闲林店经典网红两居2室2厅,https://hz.lianjia.com/zufang/xianlin1/pg2/
0,,西溪,西湖西溪坤和求是里,,8.672,--128.00㎡南北3室2厅2卫,30.24596066531314,,/zufang/HZ2822479052428804096.html,120.07279153955182,7800,链家1天前维护,整租·坤和求是里3室2厅南/北,https://hz.lianjia.com/zufang/xixi/pg2/
0,,翡翠城,余杭翡翠城西溪曼哈顿,,4.029,精选--46.00㎡西1室1厅1卫,30.260437016270405,,/zufang/HZ2519045117302808576.html,120.02660309565364,2700,爱租1个月前维护,整租·西溪曼哈顿1室1厅西,https://hz.lianjia.com/zufang/feicuicheng1/pg2/
0,,未来科技城,余杭未来科技城景瑞御蓝湾,,4.382,--89.00㎡南北3室2厅1卫,30.25760572772153,,/zufang/HZ2816134127055806464.html,119.95585982996239,3300,1天前维护,整租·景瑞御蓝湾3室2厅南/北,https://hz.lianjia.com/zufang/weilaikejicheng/pg1/
0,,闲林,余杭闲林爵士风情花园,,4.459,--84.49㎡南2室2厅1卫,30.241357115431928,,/zufang/HZ2815153218424668160.html,119.99631501860425,3200,1天前维护,整租·爵士风情花园2室2厅南,https://hz.lianjia.com/zufang/xianlin1/pg2/
0,,西溪,余杭西溪远洋西溪公馆,,5.621,精选--80.00㎡东南5室2厅3卫,30.28962197090435,,/zufang/HZ2803475081048113152.html,120.05005111522783,5100,速诚公寓1个月前维护,合租·远洋西溪公馆5居室东南卧,https://hz.lianjia.com/zufang/xixi/pg2/
0,,翡翠城,余杭翡翠城爱丁郡,,5.296,--17.00㎡北4室0厅4卫,30.25763879434098,,/zufang/HZ2812376034363064320.html,120.04016032241022,1700,4天前维护,合租·爱丁郡4居室北卧,https://hz.lianjia.com/zufang/feicuicheng1/pg3/
1,,未来科技城,FUNLIVE方隅,,1115.825,65.00㎡4间在租1室1厅1卫,39.909418963003894,,/apartment/27915.html,116.52553175021079,,FUNLIVE方隅今天维护,独栋·FUNLIVE方隅未来科技城服务式公寓阿里贝达一室一厅整租1室1厅,https://hz.lianjia.com/zufang/weilaikejicheng/pg1/
1,,闲林,美好生活公寓,,7.643,96.00㎡3间在租3室2厅2卫,30.213455822781352,,/apartment/38361.html,120.00500127356354,,美好生活公寓2天前维护,独栋·美好生活公寓绿城闲林店智能家居大三房两厅3室2厅,https://hz.lianjia.com/zufang/xianlin1/pg2/
0,,西溪,西湖西溪融创河滨之城水澜轩,,7.897,--89.75㎡南北3室2厅1卫,30.304570041139915,,/zufang/HZ2824093547722964992.html,120.0700170331537,7500,链家1天前维护,整租·融创河滨之城水澜轩3室2厅南/北,https://hz.lianjia.com/zufang/xixi/pg2/
0,,翡翠城,余杭翡翠城西溪曼哈顿,,4.029,精选--76.00㎡北2室2厅1卫,30.260437016270405,,/zufang/HZ2520922289751728128.html,120.02660309565364,4500,爱租今天维护,整租·西溪曼哈顿2室2厅北,https://hz.lianjia.com/zufang/feicuicheng1/pg3/
0,,未来科技城,余杭未来科技城中南未来里,,5.628,--30.00㎡北2室2厅2卫,30.293021116548257,,/zufang/HZ2824789478084976640.html,120.0493327403115,3800,2天前维护,合租·中南未来里2居室北卧,https://hz.lianjia.com/zufang/weilaikejicheng/pg1/
0,,闲林,余杭闲林新西湖小镇,,7.364,--88.75㎡南2室2厅1卫,30.245083978886594,,/zufang/HZ2815277571837796352.html,119.92811341852295,3200,2天前维护,整租·新西湖小镇2室2厅南,https://hz.lianjia.com/zufang/xianlin1/pg2/
0,,西溪,西湖西溪龙湖西溪天街,,10.526,--45.00㎡南1室0厅1卫,30.286669207147614,,/zufang/HZ2810934762204561408.html,120.10175281936296,3500,1天前维护,整租·龙湖西溪天街1室0厅南,https://hz.lianjia.com/zufang/xixi/pg2/
0,,翡翠城,余杭翡翠城溪悦宸府,,4.694,--88.60㎡南北3室2厅1卫,30.25321034083225,,/zufang/HZ2812901948360507392.html,120.02877924075156,5000,3天前维护,整租·溪悦宸府3室2厅南/北,https://hz.lianjia.com/zufang/feicuicheng1/pg3/
1,,未来科技城,FUNLIVE方隅,,1115.825,43.00㎡5间在租1室0厅1卫,39.909418963003894,,/apartment/27915.html,116.52553175021079,,FUNLIVE方隅今天维护,独栋·FUNLIVE方隅未来科技城服务式公寓阿里高档一室独卫独厨开间,https://hz.lianjia.com/zufang/weilaikejicheng/pg1/
1,,闲林,美好生活公寓,,7.643,76.00㎡3间在租2室2厅1卫,30.213455822781352,,/apartment/38361.html,120.00500127356354,,美好生活公寓4天前维护,独栋·美好生活公寓绿城闲林店亲昵室友两居室2室2厅,https://hz.lianjia.com/zufang/xianlin1/pg2/
0,,西溪,西湖西溪龙湖西溪天街,,10.526,--38.00㎡西2室0厅2卫,30.286669207147614,,/zufang/HZ2810924500085121024.html,120.10175281936296,6000,链家今天维护,整租·龙湖西溪天街2室0厅西,https://hz.lianjia.com/zufang/xixi/pg2/
1,,翡翠城,伊家公寓,,1033.107,25.00-30.00㎡4间在租1室0厅1卫,22.668708585032277,,/apartment/12713.html,114.03371983556202,,伊家公寓15天前维护,独栋·伊家公寓西溪店阳光朝南户型开间,https://hz.lianjia.com/zufang/feicuicheng1/pg3/
0,,未来科技城,余杭未来科技城欧美金融城,,1.901,--41.48㎡北1室1厅1卫,30.287634006890965,,/zufang/HZ2825273855093260288.html,120.01069697964955,4200,今天维护,整租·欧美金融城1室1厅北,https://hz.lianjia.com/zufang/weilaikejicheng/pg1/
0,,闲林,余杭闲林南湖大厦,,5.986,--46.02㎡北1室0厅1卫,30.249113941236114,,/zufang/HZ2815175341919191040.html,119.94235039305894,2000,3天前维护,整租·南湖大厦1室0厅北,https://hz.lianjia.com/zufang/xianlin1/pg2/
0,,西溪,西湖西溪茶市新村,,15.724,--84.00㎡南3室1厅1卫,30.28108347148038,,/zufang/HZ2811652641921712128.html,120.15605664506884,3600,2天前维护,整租·茶市新村3室1厅南,https://hz.lianjia.com/zufang/xixi/pg2/
0,,翡翠城,余杭翡翠城翡翠城二期,,5.527,--184.10㎡南4室2厅2卫,30.244680107694965,,/zufang/HZ2823770373596913664.html,120.03121104359761,12000,今天维护,整租·翡翠城二期4室2厅南,https://hz.lianjia.com/zufang/feicuicheng1/pg3/
1,,未来科技城,FUNLIVE方隅,,1115.825,40.00-43.00㎡2间在租1室0厅1卫,39.909418963003894,,/apartment/27915.html,116.52553175021079,,FUNLIVE方隅今天维护,独栋·FUNLIVE方隅未来科技城服务式公寓高档整租一室独卫独厨开间,https://hz.lianjia.com/zufang/weilaikejicheng/pg1/
0,,闲林,余杭闲林岸上蓝山,,5.208,--80.00㎡南3室1厅1卫,30.239150070431783,,/zufang/HZ2815254441811787776.html,120.01593203467006,2400,1天前维护,整租·岸上蓝山3室1厅南,https://hz.lianjia.com/zufang/xianlin1/pg2/
0,,西溪,西湖西溪坤和西溪里璞园,,15.724,--137.44㎡南3室2厅2卫,30.28108347148038,,/zufang/HZ2812877380652105728.html,120.15605664506884,8000,链家3天前维护,整租·坤和西溪里璞园3室2厅南,https://hz.lianjia.com/zufang/xixi/pg2/
1,,翡翠城,伊家公寓,,1033.107,35.00㎡3间在租1室1厅1卫,22.668708585032277,,/apartment/20227.html,114.03371983556202,,伊家公寓15天前维护,独栋·伊家公寓西嘉广场店时尚轻奢loft1室1厅,https://hz.lianjia.com/zufang/feicuicheng1/pg3/
1,,未来科技城,FUNLIVE方隅,,1115.825,65.00㎡2间在租1室1厅1卫,39.909418963003894,,/apartment/27915.html,116.52553175021079,,FUNLIVE方隅今天维护,独栋·FUNLIVE方隅未来科技城服务式公寓杭师阿里一室一厅整租1室1厅,https://hz.lianjia.com/zufang/weilaikejicheng/pg1/
0,,闲林,余杭闲林融创金成江南府,,3.993,--149.89㎡南4室2厅3卫,30.24924504928577,,/zufang/HZ2815267233104658432.html,119.97358797903236,6000,2天前维护,整租·融创金成江南府4室2厅跃层南,https://hz.lianjia.com/zufang/xianlin1/pg2/
0,,西溪,余杭西溪远洋西溪公馆,,5.621,--170.00㎡南4室2厅3卫,30.28962197090435,,/zufang/HZ2812280282261504000.html,120.05005111522783,10000,1天前维护,整租·远洋西溪公馆4室2厅南,https://hz.lianjia.com/zufang/xixi/pg2/
0,,翡翠城,余杭翡翠城翡翠城一期,,5.262,--133.18㎡南北3室2厅2卫,30.246105505005875,,/zufang/HZ2797648228747575296.html,120.02891632217238,4800,链家4天前维护,整租·翡翠城一期3室2厅南/北,https://hz.lianjia.com/zufang/feicuicheng1/pg3/
1,,未来科技城,FUNLIVE方隅,,1115.825,43.00㎡1间在租1室0厅1卫,39.909418963003894,,/apartment/27915.html,116.52553175021079,,FUNLIVE方隅今天维护,独栋·FUNLIVE方隅未来科技城服务式公寓贝达高档一室整租开间,https://hz.lianjia.com/zufang/weilaikejicheng/pg1/
0,,闲林,余杭闲林绿城桃源小镇品霞苑,,6.25,--87.42㎡南3室2厅1卫,30.22976806904107,,/zufang/HZ2794940286336778240.html,119.96634727729973,1700,1天前维护,整租·绿城桃源小镇品霞苑3室2厅南,https://hz.lianjia.com/zufang/xianlin1/pg2/
0,,西溪,西湖西溪华策中心,,15.724,--51.00㎡北2室1厅2卫,30.28108347148038,,/zufang/HZ2812898495382691840.html,120.15605664506884,4700,1天前维护,整租·华策中心2室1厅北,https://hz.lianjia.com/zufang/xixi/pg2/
0,,翡翠城,余杭翡翠城华元西溪欢乐城,,4.674,--38.00㎡北2室1厅1卫,30.24684896523623,,/zufang/HZ2794752812012281856.html,120.0201803909184,2200,今天维护,整租·华元西溪欢乐城2室1厅北,https://hz.lianjia.com/zufang/feicuicheng1/pg3/
1,,未来科技城,方隅公寓,,173.751,63.00㎡1间在租1室1厅1卫,31.26116388182826,,/apartment/26260.html,121.40897696867404,,方隅公寓3天前维护,独栋·方隅公寓杭州方隅公寓杭师大旁网红公寓一居1室1厅,https://hz.lianjia.com/zufang/weilaikejicheng/pg1/
0,,闲林,余杭闲林竹海水韵,,4.235,--88.35㎡南3室2厅1卫,30.24352799701941,,/zufang/HZ2815967643335933952.html,119.98671186321094,3500,2天前维护,整租·竹海水韵3室2厅南,https://hz.lianjia.com/zufang/xianlin1/pg2/
0,,西溪,余杭西溪远洋西溪公馆,,5.621,精选--47.00㎡北5室2厅3卫,30.28962197090435,,/zufang/HZ2803501486405844992.html,120.05005111522783,4080,速诚公寓1个月前维护,合租·远洋西溪公馆5居室北卧,https://hz.lianjia.com/zufang/xixi/pg2/
0,,翡翠城,余杭翡翠城翡翠城一期,,5.262,--151.00㎡南3室2厅2卫,30.246105505005875,,/zufang/HZ2794917445381931008.html,120.02891632217238,7200,6天前维护,整租·翡翠城一期3室2厅南,https://hz.lianjia.com/zufang/feicuicheng1/pg3/
1,,未来科技城,方隅公寓,,173.751,38.00㎡1间在租1室0厅1卫,31.26116388182826,,/apartment/26260.html,121.40897696867404,,方隅公寓5天前维护,独栋·方隅公寓杭州方隅公寓可短租边套安静小一室开间,https://hz.lianjia.com/zufang/weilaikejicheng/pg1/
0,,闲林,余杭闲林竹海水韵,,4.235,--60.00㎡南4室2厅2卫,30.24352799701941,,/zufang/HZ2699997368509530112.html,119.98671186321094,2200,菜鸟公寓1天前维护,合租·竹海水韵4居室南卧,https://hz.lianjia.com/zufang/xianlin1/pg2/
0,,西溪,西湖西溪西溪诚园致诚苑,,9.136,--89.00㎡南3室1厅1卫,30.29849048120104,,/zufang/HZ2822447531941183488.html,120.08535452176997,10000,链家2天前维护,整租·西溪诚园致诚苑3室1厅南,https://hz.lianjia.com/zufang/xixi/pg2/
0,,翡翠城,余杭翡翠城翡翠城二期,,5.527,--160.00㎡东南3室2厅2卫,30.244680107694965,,/zufang/HZ2797646509595181056.html,120.03121104359761,4000,2天前维护,整租·翡翠城二期3室2厅东南,https://hz.lianjia.com/zufang/feicuicheng1/pg3/
0,,未来科技城,余杭未来科技城合景映月台,,2.743,精选--16.00㎡南5室1厅2卫,30.27820381869327,,/zufang/HZ2828642050570715136.html,120.02064220978107,1960,自如今天维护,合租·合景映月台5居室南卧,https://hz.lianjia.com/zufang/weilaikejicheng/pg1/
0,,闲林,余杭闲林绿城桃花源,,5.067,--129.00㎡南3室2厅2卫,30.25168092827007,,/zufang/HZ2815935188071628800.html,119.95221522484732,3200,5天前维护,整租·绿城桃花源3室2厅南,https://hz.lianjia.com/zufang/xianlin1/pg2/
0,,西溪,余杭西溪远洋西溪公馆,,5.621,精选--45.00㎡南5室2厅3卫,30.28962197090435,,/zufang/HZ2803482742371647488.html,120.05005111522783,3080,速诚公寓1个月前维护,合租·远洋西溪公馆5居室南卧,https://hz.lianjia.com/zufang/xixi/pg2/
0,,翡翠城,余杭翡翠城绿城翡翠湾,,5.19,--139.00㎡南3室2厅2卫,30.248029348772224,,/zufang/HZ2797824048258613248.html,120.03019092786047,4800,今天维护,整租·绿城翡翠湾3室2厅南,https://hz.lianjia.com/zufang/feicuicheng1/pg3/
0,,未来科技城,余杭未来科技城庭院深深,,4.095,--138.00㎡东东南3室2厅2卫,30.25131966830845,,/zufang/HZ2817369602013528064.html,119.96755630668562,3500,3天前维护,整租·庭院深深3室2厅东/东南,https://hz.lianjia.com/zufang/weilaikejicheng/pg2/
0,,闲林,,,,20.00㎡1间在租1室1厅1卫,,,/apartment/17959.html,,1546,柚米国际社区4天前维护,独栋·柚米国际社区杭州西溪湿地店特价小户型1室1厅,https://hz.lianjia.com/zufang/xianlin1/pg2/
0,,西溪,西湖西溪和家园臻园,,15.724,--89.00㎡南3室2厅1卫,30.28108347148038,,/zufang/HZ2822518579122151424.html,120.15605664506884,6500,链家今天维护,整租·和家园臻园3室2厅南,https://hz.lianjia.com/zufang/xixi/pg2/
1,,翡翠城,伊家公寓,,1033.107,35.00-40.00㎡4间在租1室1厅1卫,22.668708585032277,,/apartment/20227.html,114.03371983556202,,伊家公寓15天前维护,独栋·伊家公寓西嘉广场店朝南大窗采光好1室1厅,https://hz.lianjia.com/zufang/feicuicheng1/pg3/
1,,未来科技城,方隅公寓,,173.751,63.00㎡2间在租1室1厅1卫,31.26116388182826,,/apartment/26260.html,121.40897696867404,,方隅公寓3天前维护,独栋·方隅公寓杭州方隅公寓应届生可月付朝南一居1室1厅,https://hz.lianjia.com/zufang/weilaikejicheng/pg2/
0,,闲林,余杭闲林新西湖小镇,,7.364,--77.00㎡南2室2厅1卫,30.245083978886594,,/zufang/HZ2817944340042104832.html,119.92811341852295,2500,1天前维护,整租·新西湖小镇2室2厅南,https://hz.lianjia.com/zufang/xianlin1/pg2/
0,,西溪,余杭西溪远洋西溪公馆,,5.621,精选--29.00㎡北5室4厅4卫,30.28962197090435,,/zufang/HZ2825313925099159552.html,120.05005111522783,3280,速诚公寓4天前维护,合租·远洋西溪公馆5居室北卧,https://hz.lianjia.com/zufang/xixi/pg2/
0,,翡翠城,余杭翡翠城翡翠城一期,,5.262,--135.00㎡南北3室2厅2卫,30.246105505005875,,/zufang/HZ2759409045616984064.html,120.02891632217238,6600,4天前维护,整租·翡翠城一期3室2厅南/北,https://hz.lianjia.com/zufang/feicuicheng1/pg3/
0,,未来科技城,余杭未来科技城杉杉恒和依山郡,,16.289,--91.25㎡西北2室1厅1卫,30.35891929754639,,/zufang/HZ2799803162620600320.html,119.84837964179621,1200,1天前维护,整租·杉杉恒和依山郡2室1厅西北,https://hz.lianjia.com/zufang/weilaikejicheng/pg2/
0,,闲林,余杭闲林绿城桃源小镇品霞苑,,6.25,--124.47㎡东4室2厅2卫,30.22976806904107,,/zufang/HZ2796888858690854912.html,119.96634727729973,3500,1天前维护,整租·绿城桃源小镇品霞苑4室2厅东,https://hz.lianjia.com/zufang/xianlin1/pg2/
0,,西溪,余杭西溪百家乐西园,,4.892,--261.40㎡南4室0厅0卫,30.274497250190596,,/zufang/HZ2822579983976251392.html,120.04263209985147,9500,1天前维护,整租·百家乐西园4室0厅南,https://hz.lianjia.com/zufang/xixi/pg2/
1,,翡翠城,伊家公寓,,1033.107,30.00-35.00㎡6间在租1室1厅1卫,22.668708585032277,,/apartment/12713.html,114.03371983556202,,伊家公寓7天前维护,独栋·伊家公寓西溪店温馨单间可做饭1室1厅,https://hz.lianjia.com/zufang/feicuicheng1/pg3/
1,,未来科技城,方隅公寓,,173.751,130.00㎡2间在租2室2厅2卫,31.26116388182826,,/apartment/26260.html,121.40897696867404,,方隅公寓3天前维护,独栋·方隅公寓杭州方隅公寓两卧两卫朝南加浴缸2室2厅,https://hz.lianjia.com/zufang/weilaikejicheng/pg2/
0,,闲林,余杭闲林新西湖小镇,,7.364,--73.55㎡南2室2厅1卫,30.245083978886594,,/zufang/HZ2796400131165913088.html,119.92811341852295,1600,4天前维护,整租·新西湖小镇2室2厅南,https://hz.lianjia.com/zufang/xianlin1/pg2/
0,,西溪,余杭西溪远洋西溪公馆,,5.621,精选--30.00㎡东北5室4厅4卫,30.28962197090435,,/zufang/HZ2825312811352604672.html,120.05005111522783,3280,速诚公寓4天前维护,合租·远洋西溪公馆5居室东北卧,https://hz.lianjia.com/zufang/xixi/pg2/
0,,翡翠城,余杭翡翠城翡翠城二期,,5.527,--89.00㎡南2室1厅1卫,30.244680107694965,,/zufang/HZ2800550751498682368.html,120.03121104359761,4200,1天前维护,整租·翡翠城二期2室1厅南,https://hz.lianjia.com/zufang/feicuicheng1/pg3/
0,,未来科技城,余杭未来科技城西城时代家园,,3.361,--165.30㎡南4室2厅2卫,30.27082976258941,,/zufang/HZ2799143100504096768.html,119.95947550964006,6050,今天维护,整租·西城时代家园4室2厅南,https://hz.lianjia.com/zufang/weilaikejicheng/pg2/
0,,闲林,余杭闲林新西湖小镇,,7.364,--77.83㎡南2室2厅1卫,30.245083978886594,,/zufang/HZ2796477517366558720.html,119.92811341852295,2100,1天前维护,整租·新西湖小镇2室2厅南,https://hz.lianjia.com/zufang/xianlin1/pg2/
0,,西溪,西湖西溪中海西溪华府,,6.778,--89.00㎡南3室2厅1卫,30.29611525612445,,/zufang/HZ2823108968850145280.html,120.06078694403868,6200,链家今天维护,整租·中海西溪华府3室2厅南,https://hz.lianjia.com/zufang/xixi/pg2/
0,,翡翠城,余杭翡翠城翡翠城一期,,5.262,--184.00㎡南5室2厅2卫,30.246105505005875,,/zufang/HZ2763954040919834624.html,120.02891632217238,17000,2天前维护,整租·翡翠城一期5室2厅南,https://hz.lianjia.com/zufang/feicuicheng1/pg3/
1,,未来科技城,方隅公寓,,173.751,43.00㎡1间在租1室0厅1卫,31.26116388182826,,/apartment/26260.html,121.40897696867404,,方隅公寓3天前维护,独栋·方隅公寓杭州方隅公寓阳光房带地暖小一室开间,https://hz.lianjia.com/zufang/weilaikejicheng/pg2/
0,,闲林,余杭闲林江南新港公寓,,4.784,--117.00㎡南北3室2厅1卫,30.238296021454588,,/zufang/HZ2796903660464898048.html,119.99322951883859,3500,4天前维护,整租·江南新港公寓3室2厅南/北,https://hz.lianjia.com/zufang/xianlin1/pg2/
0,,西溪,余杭西溪远洋西溪公馆,,5.621,精选--30.00㎡北5室4厅4卫,30.28962197090435,,/zufang/HZ2825942931590873088.html,120.05005111522783,3100,速诚公寓3天前维护,合租·远洋西溪公馆5居室北卧,https://hz.lianjia.com/zufang/xixi/pg2/
0,,翡翠城,余杭翡翠城翡翠城梧桐郡,,4.277,--128.00㎡南北4室2厅2卫,30.253900245429797,,/zufang/HZ2764998351807324160.html,120.02354840776695,6800,链家今天维护,整租·翡翠城梧桐郡4室2厅南/北,https://hz.lianjia.com/zufang/feicuicheng1/pg3/
0,,未来科技城,余杭未来科技城合景映月台,,2.743,--139.40㎡南4室2厅2卫,30.27820381869327,,/zufang/HZ2799346527410331648.html,120.02064220978107,12000,今天维护,整租·合景映月台4室2厅南,https://hz.lianjia.com/zufang/weilaikejicheng/pg2/
0,,闲林,余杭闲林融创金成未来海,,3.296,--95.00㎡西南3室2厅2卫,30.2516668117035,,/zufang/HZ2795699770771898368.html,119.99236480995467,4500,1天前维护,整租·融创金成未来海3室2厅西南,https://hz.lianjia.com/zufang/xianlin1/pg2/
0,,西溪,余杭西溪西溪玫瑰,,6.046,--231.61㎡南北5室2厅3卫,30.256060786574146,,/zufang/HZ2705950653137821696.html,120.04806630920353,8000,3天前维护,整租·西溪玫瑰5室2厅复式南/北,https://hz.lianjia.com/zufang/xixi/pg3/
0,,翡翠城,余杭翡翠城翡翠城一期,,5.262,--181.36㎡南西北4室2厅2卫,30.246105505005875,,/zufang/HZ2768149212628516864.html,120.02891632217238,6900,4天前维护,整租·翡翠城一期4室2厅南/西/北,https://hz.lianjia.com/zufang/feicuicheng1/pg3/
0,,未来科技城,余杭未来科技城阳光城未来悦MAX,,0.783,--89.00㎡南3室2厅2卫,30.274755109112583,,/zufang/HZ2817378234151477248.html,119.99528160794559,5800,3天前维护,整租·阳光城未来悦MAX3室2厅南,https://hz.lianjia.com/zufang/weilaikejicheng/pg2/
0,,闲林,余杭闲林绿城桃源小镇,,5.954,--89.00㎡南2室1厅1卫,30.230505491386737,,/zufang/HZ2796487666433540096.html,119.97271015488802,3000,2天前维护,整租·绿城桃源小镇2室1厅南,https://hz.lianjia.com/zufang/xianlin1/pg2/
0,,西溪,余杭西溪远洋西溪公馆,,5.621,精选--28.00㎡西北5室5厅4卫,30.28962197090435,,/zufang/HZ2825925409886453760.html,120.05005111522783,2800,速诚公寓2天前维护,合租·远洋西溪公馆5居室西北卧,https://hz.lianjia.com/zufang/xixi/pg3/
0,,翡翠城,余杭翡翠城翡翠城三期,,5.24,--87.09㎡南3室1厅1卫,30.246499074778125,,/zufang/HZ2805837814708060160.html,120.02908295784447,4500,今天维护,整租·翡翠城三期3室1厅南,https://hz.lianjia.com/zufang/feicuicheng1/pg3/
0,,未来科技城,余杭未来科技城佳源未来府,,4.654,--89.00㎡南3室2厅1卫,30.27722793129022,,/zufang/HZ2817443618619662336.html,119.94407504980755,5000,3天前维护,整租·佳源未来府3室2厅南,https://hz.lianjia.com/zufang/weilaikejicheng/pg2/
0,,闲林,,,,23.00㎡1间在租1室1厅1卫,,,/apartment/17959.html,,2061,柚米国际社区8天前维护,独栋·柚米国际社区杭州西溪湿地店舒适特惠一居1室1厅,https://hz.lianjia.com/zufang/xianlin1/pg2/
0,,西溪,余杭西溪大华西溪风情,,4.889,--254.81㎡东南南西南5室2厅4卫,30.28460189164612,,/zufang/HZ2724439771320688640.html,120.0430749644679,12000,1天前维护,整租·大华西溪风情5室2厅东南/南/西南,https://hz.lianjia.com/zufang/xixi/pg3/
0,,翡翠城,余杭翡翠城华元蒙卡岸,,4.457,--127.00㎡南4室2厅2卫,30.247045280842684,,/zufang/HZ2803616379037548544.html,120.0163920569217,4500,2天前维护,整租·华元蒙卡岸4室2厅南,https://hz.lianjia.com/zufang/feicuicheng1/pg3/
0,,未来科技城,余杭未来科技城欧美金融城,,1.901,--46.55㎡东南1室1厅1卫,30.287634006890965,,/zufang/HZ2817272865022279680.html,120.01069697964955,4800,1天前维护,整租·欧美金融城1室1厅东南,https://hz.lianjia.com/zufang/weilaikejicheng/pg2/
0,,闲林,余杭闲林中港罗兰小镇,,7.502,--89.00㎡南北3室2厅2卫,30.242243741397246,,/zufang/HZ2796182109482385408.html,119.92861844588066,3500,1天前维护,整租·中港罗兰小镇3室2厅南/北,https://hz.lianjia.com/zufang/xianlin1/pg2/
0,,西溪,余杭西溪远洋西溪公馆,,5.621,精选--80.00㎡东南5室2厅3卫,30.28962197090435,,/zufang/HZ2803475081048113152.html,120.05005111522783,5100,速诚公寓1个月前维护,合租·远洋西溪公馆5居室东南卧,https://hz.lianjia.com/zufang/xixi/pg3/
0,,翡翠城,余杭翡翠城华元蒙卡岸,,4.457,--134.00㎡南3室2厅2卫,30.247045280842684,,/zufang/HZ2804924681331941376.html,120.0163920569217,4500,4天前维护,整租·华元蒙卡岸3室2厅南,https://hz.lianjia.com/zufang/feicuicheng1/pg3/
0,,未来科技城,余杭未来科技城鼎创财富中心,,2.282,--45.00㎡东2室1厅2卫,30.288253110914155,,/zufang/HZ2818937967916630016.html,120.01466578322318,5000,6天前维护,整租·鼎创财富中心2室1厅东,https://hz.lianjia.com/zufang/weilaikejicheng/pg2/
0,,闲林,余杭闲林绿城桃源小镇,,5.954,--88.00㎡南3室2厅2卫,30.230505491386737,,/zufang/HZ2815936458727636992.html,119.97271015488802,3800,2天前维护,整租·绿城桃源小镇3室2厅南,https://hz.lianjia.com/zufang/xianlin1/pg2/
0,,西溪,余杭西溪西溪玫瑰,,6.046,--277.47㎡南北5室2厅3卫,30.256060786574146,,/zufang/HZ2704893312988889088.html,120.04806630920353,10000,4天前维护,整租·西溪玫瑰5室2厅南/北,https://hz.lianjia.com/zufang/xixi/pg3/
1,,翡翠城,伊家公寓,,1033.107,40.00㎡1间在租1室1厅1卫,22.668708585032277,,/apartment/27507.html,114.03371983556202,,伊家公寓15天前维护,独栋·伊家公寓翡翠城店简约大套间（04）1室1厅,https://hz.lianjia.com/zufang/feicuicheng1/pg3/
0,,未来科技城,余杭未来科技城欧美金融城,,1.901,精选--41.59㎡南1室1厅1卫,30.287634006890965,,/zufang/HZ2805912545612283904.html,120.01069697964955,4600,未莱公寓4天前维护,整租·欧美金融城1室1厅南,https://hz.lianjia.com/zufang/weilaikejicheng/pg2/
0,,闲林,余杭闲林雅居乐国际花园,,4.941,--89.00㎡南北3室2厅2卫,30.237128702458453,,/zufang/HZ2816616571831853056.html,119.98677582256325,3300,2天前维护,整租·雅居乐国际花园3室2厅南/北,https://hz.lianjia.com/zufang/xianlin1/pg2/
0,,西溪,余杭西溪远洋西溪公馆,,5.621,精选--56.00㎡南5室4厅4卫,30.28962197090435,,/zufang/HZ2825930061730299904.html,120.05005111522783,4500,速诚公寓2天前维护,合租·远洋西溪公馆5居室南卧,https://hz.lianjia.com/zufang/xixi/pg3/
0,,翡翠城,余杭翡翠城翡翠城二期,,5.527,--161.30㎡南3室2厅2卫,30.244680107694965,,/zufang/HZ2771818441743532032.html,120.03121104359761,6500,链家3天前维护,整租·翡翠城二期3室2厅南,https://hz.lianjia.com/zufang/feicuicheng1/pg3/
0,,未来科技城,余杭未来科技城华夏之心,,1.924,--44.00㎡西北1室1厅1卫,30.289763003395066,,/zufang/HZ2800686619516993536.html,120.00979103854273,4500,链家今天维护,整租·华夏之心1室1厅西北,https://hz.lianjia.com/zufang/weilaikejicheng/pg2/
0,,闲林,余杭闲林赞成乐山红叶,,4.539,--30.00㎡南5室4厅5卫,30.240708072335345,,/zufang/HZ2818130583874437120.html,119.98736798555542,2700,4天前维护,合租·赞成乐山红叶5居室南卧,https://hz.lianjia.com/zufang/xianlin1/pg2/
0,,西溪,西湖西溪坤和和家园,,7.935,--174.00㎡南4室2厅2卫,30.247432061206066,,/zufang/HZ2705792039030620160.html,120.06502101722941,9650,链家5天前维护,整租·坤和和家园4室2厅南,https://hz.lianjia.com/zufang/xixi/pg3/
1,,翡翠城,伊家公寓,,1033.107,35.00㎡2间在租1室1厅1卫,22.668708585032277,,/apartment/20227.html,114.03371983556202,,伊家公寓7天前维护,独栋·伊家公寓西嘉广场店精致loft1室1厅,https://hz.lianjia.com/zufang/feicuicheng1/pg3/
0,,未来科技城,余杭未来科技城欧美金融城,,1.901,精选--45.00㎡南1室1厅1卫,30.287634006890965,,/zufang/HZ2812364957910843392.html,120.01069697964955,4500,未莱公寓6天前维护,整租·欧美金融城1室1厅南,https://hz.lianjia.com/zufang/weilaikejicheng/pg2/
0,,闲林,余杭闲林闲林山水丹枫苑,,5.481,--133.00㎡南3室2厅2卫,30.239727050414576,,/zufang/HZ2818138304766558208.html,120.02294968714455,4800,2天前维护,整租·闲林山水丹枫苑3室2厅南,https://hz.lianjia.com/zufang/xianlin1/pg2/
0,,西溪,西湖西溪绿城西溪云庐,,8.421,--188.00㎡南北4室2厅4卫,30.258009701216928,,/zufang/HZ2708709575275847680.html,120.07573923925226,35000,今天维护,整租·绿城西溪云庐4室2厅南/北,https://hz.lianjia.com/zufang/xixi/pg3/
0,,翡翠城,余杭翡翠城爱丁郡,,5.296,--142.00㎡南4室2厅2卫,30.25763879434098,,/zufang/HZ2772271475666206720.html,120.04016032241022,5300,2天前维护,整租·爱丁郡4室2厅南,https://hz.lianjia.com/zufang/feicuicheng1/pg3/
0,,未来科技城,余杭未来科技城万科星空,,4.184,--89.00㎡南3室2厅1卫,30.296109643262117,,/zufang/HZ2800186214320447488.html,120.03236563566959,7300,1天前维护,整租·万科星空3室2厅南,https://hz.lianjia.com/zufang/weilaikejicheng/pg2/
0,,闲林,余杭闲林绿城桃源小镇品霞苑,,6.25,--90.00㎡南3室2厅1卫,30.22976806904107,,/zufang/HZ2797096625678589952.html,119.96634727729973,2800,链家1天前维护,整租·绿城桃源小镇品霞苑3室2厅南,https://hz.lianjia.com/zufang/xianlin1/pg2/
0,,西溪,西湖西溪万科坤和玉泉,,8.696,--131.00㎡南北3室2厅2卫,30.24350795137407,,/zufang/HZ2708475239443988480.html,120.0715651728696,8500,今天维护,整租·万科坤和玉泉3室2厅南/北,https://hz.lianjia.com/zufang/xixi/pg3/
1,,翡翠城,伊家公寓,,1033.107,40.00-45.00㎡2间在租1室1厅1卫,22.668708585032277,,/apartment/12709.html,114.03371983556202,,伊家公寓3天前维护,独栋·伊家公寓华立店简约大套间（04）1室1厅,https://hz.lianjia.com/zufang/feicuicheng1/pg3/
0,,未来科技城,余杭未来科技城庭院深深,,4.095,--103.00㎡南3室2厅1卫,30.25131966830845,,/zufang/HZ2800127100605448192.html,119.96755630668562,3000,2天前维护,整租·庭院深深3室2厅南,https://hz.lianjia.com/zufang/weilaikejicheng/pg2/
0,,闲林,余杭闲林闲林山水木兰苑,,5.452,--250.00㎡南4室2厅3卫,30.23835382151681,,/zufang/HZ2797680425483640832.html,120.01967150084698,10000,3天前维护,整租·闲林山水木兰苑4室2厅南,https://hz.lianjia.com/zufang/xianlin1/pg2/
0,,西溪,西湖西溪中海西溪华府,,6.778,--89.00㎡南北4室2厅1卫,30.29611525612445,,/zufang/HZ2726862217508569088.html,120.06078694403868,5500,今天维护,整租·中海西溪华府4室2厅南/北,https://hz.lianjia.com/zufang/xixi/pg3/
0,,翡翠城,余杭翡翠城翡翠城三期,,5.24,--137.45㎡南3室2厅2卫,30.246499074778125,,/zufang/HZ2774439011886825472.html,120.02908295784447,5200,2天前维护,整租·翡翠城三期3室2厅南,https://hz.lianjia.com/zufang/feicuicheng1/pg3/
0,,未来科技城,余杭未来科技城泊悦府,,3.227,--128.00㎡南3室2厅2卫,30.286964066558873,,/zufang/HZ2800569944742297600.html,120.0252717170573,4100,1天前维护,整租·泊悦府3室2厅南,https://hz.lianjia.com/zufang/weilaikejicheng/pg2/
0,,闲林,余杭闲林闲林山水木兰苑,,5.452,--134.73㎡南3室2厅2卫,30.23835382151681,,/zufang/HZ2797893062343532544.html,120.01967150084698,3800,1天前维护,整租·闲林山水木兰苑3室2厅南,https://hz.lianjia.com/zufang/xianlin1/pg2/
0,,西溪,西湖西溪融创河滨之城水澜轩,,7.897,--89.00㎡南3室2厅1卫,30.304570041139915,,/zufang/HZ2725968089958596608.html,120.0700170331537,9000,链家4天前维护,整租·融创河滨之城水澜轩3室2厅南,https://hz.lianjia.com/zufang/xixi/pg3/
1,,翡翠城,伊家公寓,,1033.107,35.00㎡6间在租1室1厅1卫,22.668708585032277,,/apartment/28094.html,114.03371983556202,,伊家公寓15天前维护,独栋·伊家公寓乐天城店南北通透大户型1室1厅,https://hz.lianjia.com/zufang/feicuicheng1/pg3/
0,,未来科技城,余杭未来科技城金沙公寓,,3.708,--96.54㎡南4室2厅2卫,30.262129277178328,,/zufang/HZ2800611618432753664.html,119.96072613057105,3500,今天维护,整租·金沙公寓4室2厅南,https://hz.lianjia.com/zufang/weilaikejicheng/pg2/
0,,闲林,余杭闲林中港罗兰小镇,,7.502,--114.00㎡南4室2厅2卫,30.242243741397246,,/zufang/HZ2820321219126239232.html,119.92861844588066,4800,5天前维护,整租·中港罗兰小镇4室2厅南,https://hz.lianjia.com/zufang/xianlin1/pg3/
0,,西溪,余杭西溪远洋西溪公馆,,5.621,精选--47.00㎡北5室2厅3卫,30.28962197090435,,/zufang/HZ2803501486405844992.html,120.05005111522783,4080,速诚公寓1个月前维护,合租·远洋西溪公馆5居室北卧,https://hz.lianjia.com/zufang/xixi/pg3/
0,,翡翠城,余杭翡翠城翡翠城一期,,5.262,--152.00㎡南3室2厅2卫,30.246105505005875,,/zufang/HZ2807103924081786880.html,120.02891632217238,6500,今天维护,整租·翡翠城一期3室2厅南,https://hz.lianjia.com/zufang/feicuicheng1/pg3/
0,,未来科技城,余杭未来科技城佳源未来府,,4.654,--77.45㎡南2室1厅1卫,30.27722793129022,,/zufang/HZ2800711618499969024.html,119.94407504980755,2500,今天维护,整租·佳源未来府2室1厅南,https://hz.lianjia.com/zufang/weilaikejicheng/pg2/
0,,闲林,余杭闲林闲林山水海棠苑,,5.425,--12.00㎡北2室1厅1卫,30.242084075999973,,/zufang/HZ2820321649059176448.html,120.02588804446768,1100,1天前维护,合租·闲林山水海棠苑2居室北卧,https://hz.lianjia.com/zufang/xianlin1/pg3/
0,,西溪,西湖西溪西溪新城市,,15.724,--136.00㎡东西4室2厅2卫,30.28108347148038,,/zufang/HZ2725215839480446976.html,120.15605664506884,11500,1天前维护,整租·西溪新城市4室2厅东/西,https://hz.lianjia.com/zufang/xixi/pg3/
1,,翡翠城,伊家公寓,,1033.107,36.00-40.00㎡2间在租1室1厅1卫,22.668708585032277,,/apartment/20227.html,114.03371983556202,,伊家公寓15天前维护,独栋·伊家公寓西嘉广场店天井精装LOFT1室1厅,https://hz.lianjia.com/zufang/feicuicheng1/pg3/
0,,未来科技城,余杭未来科技城佳源未来府,,4.654,--80.42㎡南北2室2厅1卫,30.27722793129022,,/zufang/HZ2800165879361847296.html,119.94407504980755,3800,3天前维护,整租·佳源未来府2室2厅南/北,https://hz.lianjia.com/zufang/weilaikejicheng/pg2/
0,,闲林,余杭闲林赞成乐山红叶,,4.539,--89.00㎡南北3室1厅1卫,30.240708072335345,,/zufang/HZ2802680217742098432.html,119.98736798555542,3800,1天前维护,整租·赞成乐山红叶3室1厅南/北,https://hz.lianjia.com/zufang/xianlin1/pg3/
1,,西溪,美好生活公寓,,7.643,90.00-96.00㎡3间在租3室2厅2卫,30.213455822781352,,/apartment/38642.html,120.00500127356354,,美好生活公寓2天前维护,独栋·美好生活公寓西溪店香榭丽舍特价三居3室2厅,https://hz.lianjia.com/zufang/xixi/pg3/
0,,翡翠城,余杭翡翠城翡翠城一期,,5.262,--162.90㎡南3室2厅2卫,30.246105505005875,,/zufang/HZ2679572221072523264.html,120.02891632217238,7500,2天前维护,整租·翡翠城一期3室2厅南,https://hz.lianjia.com/zufang/feicuicheng1/pg4/
0,,未来科技城,余杭未来科技城合景天峻,,3.227,--109.73㎡南3室2厅2卫,30.286964066558873,,/zufang/HZ2800079896020525056.html,120.0252717170573,6800,链家今天维护,整租·合景天峻3室2厅南,https://hz.lianjia.com/zufang/weilaikejicheng/pg2/
0,,闲林,余杭闲林融创金成西溪海,,3.296,--86.29㎡南3室2厅1卫,30.2516668117035,,/zufang/HZ2802299033363169280.html,119.99236480995467,4200,链家1天前维护,整租·融创金成西溪海3室2厅南,https://hz.lianjia.com/zufang/xianlin1/pg3/
0,,西溪,余杭西溪西溪玫瑰,,6.046,--259.00㎡南5室2厅4卫,30.256060786574146,,/zufang/HZ2601210373927608320.html,120.04806630920353,8000,链家2天前维护,整租·西溪玫瑰5室2厅南,https://hz.lianjia.com/zufang/xixi/pg3/
1,,翡翠城,伊家公寓,,1033.107,30.00-40.00㎡9间在租1室1厅1卫,22.668708585032277,,/apartment/20227.html,114.03371983556202,,伊家公寓15天前维护,独栋·伊家公寓西嘉广场店南北通大户型可两房1室1厅,https://hz.lianjia.com/zufang/feicuicheng1/pg4/
0,,未来科技城,余杭未来科技城欧美金融城,,1.901,精选--45.00㎡南1室1厅1卫,30.287634006890965,,/zufang/HZ2808117287532904448.html,120.01069697964955,4600,未莱公寓3天前维护,整租·欧美金融城1室1厅南,https://hz.lianjia.com/zufang/weilaikejicheng/pg2/
0,,闲林,余杭闲林中港罗兰小镇,,7.502,--114.00㎡南3室2厅2卫,30.242243741397246,,/zufang/HZ2819375426626404352.html,119.92861844588066,18000,1天前维护,整租·中港罗兰小镇3室2厅南,https://hz.lianjia.com/zufang/xianlin1/pg3/
0,,西溪,余杭西溪西溪玫瑰,,6.046,--251.00㎡南4室2厅2卫,30.256060786574146,,/zufang/HZ2607801124983406592.html,120.04806630920353,8000,链家3天前维护,整租·西溪玫瑰4室2厅南,https://hz.lianjia.com/zufang/xixi/pg3/
0,,翡翠城,余杭翡翠城华元西溪欢乐城,,4.674,--50.81㎡北2室2厅1卫,30.24684896523623,,/zufang/HZ2677446391130750976.html,120.0201803909184,1800,4天前维护,整租·华元西溪欢乐城2室2厅北,https://hz.lianjia.com/zufang/feicuicheng1/pg4/
0,,未来科技城,余杭未来科技城阳光城未来悦MAX,,0.783,--140.00㎡南4室2厅1卫,30.274755109112583,,/zufang/HZ2817990638027948032.html,119.99528160794559,7000,5天前维护,整租·阳光城未来悦MAX4室2厅南,https://hz.lianjia.com/zufang/weilaikejicheng/pg2/
0,,闲林,余杭闲林融创金成西溪海,,3.296,--89.00㎡南3室1厅2卫,30.2516668117035,,/zufang/HZ2819567010328363008.html,119.99236480995467,4000,1天前维护,整租·融创金成西溪海3室1厅南,https://hz.lianjia.com/zufang/xianlin1/pg3/
0,,西溪,西湖西溪坤和和家园,,7.935,--303.00㎡南北5室2厅5卫,30.247432061206066,,/zufang/HZ2627492036395409408.html,120.06502101722941,12500,链家6天前维护,整租·坤和和家园5室2厅南/北,https://hz.lianjia.com/zufang/xixi/pg3/
1,,翡翠城,伊家公寓,,1033.107,36.00-40.00㎡2间在租1室1厅1卫,22.668708585032277,,/apartment/20227.html,114.03371983556202,,伊家公寓15天前维护,独栋·伊家公寓西嘉广场店天井精装LOFT1室1厅,https://hz.lianjia.com/zufang/feicuicheng1/pg4/
0,,未来科技城,余杭未来科技城中南未来里,,5.628,精选--35.00㎡西2室2厅2卫,30.293021116548257,,/zufang/HZ2810978982114099200.html,120.0493327403115,3200,未莱公寓7天前维护,合租·中南未来里2居室西卧,https://hz.lianjia.com/zufang/weilaikejicheng/pg2/
0,,闲林,余杭闲林绿城桃源小镇,,5.954,--86.31㎡南3室2厅1卫,30.230505491386737,,/zufang/HZ2803464399707447296.html,119.97271015488802,2000,5天前维护,整租·绿城桃源小镇3室2厅南,https://hz.lianjia.com/zufang/xianlin1/pg3/
0,,西溪,余杭西溪香港兴业耦园,,5.529,--174.00㎡南5室2厅2卫,30.273700900793585,,/zufang/HZ2625347665617231872.html,120.04920805550671,12000,3天前维护,整租·香港兴业耦园5室2厅跃层南,https://hz.lianjia.com/zufang/xixi/pg3/
0,,翡翠城,余杭翡翠城绿城翡翠湾,,5.19,--152.00㎡南3室2厅2卫,30.248029348772224,,/zufang/HZ2825887607790247936.html,120.03019092786047,5200,4天前维护,整租·绿城翡翠湾3室2厅南,https://hz.lianjia.com/zufang/feicuicheng1/pg4/
0,,未来科技城,余杭未来科技城金都西花庭,,3.307,--120.08㎡南3室2厅2卫,30.279910818367362,,/zufang/HZ2817957302739673088.html,119.95790599025302,5300,今天维护,整租·金都西花庭3室2厅南,https://hz.lianjia.com/zufang/weilaikejicheng/pg2/
0,,闲林,余杭闲林绿城桃源小镇品霞苑,,6.25,--125.00㎡南4室2厅2卫,30.22976806904107,,/zufang/HZ2803011824155901952.html,119.96634727729973,2200,3天前维护,整租·绿城桃源小镇品霞苑4室2厅南,https://hz.lianjia.com/zufang/xianlin1/pg3/
0,,西溪,余杭西溪大华西溪风情,,4.889,--251.00㎡南5室2厅3卫,30.28460189164612,,/zufang/HZ2622941873064378368.html,120.0430749644679,8000,2天前维护,整租·大华西溪风情5室2厅南,https://hz.lianjia.com/zufang/xixi/pg3/
1,,翡翠城,伊家公寓,,1033.107,45.00㎡3间在租1室1厅1卫,22.668708585032277,,/apartment/27507.html,114.03371983556202,,伊家公寓15天前维护,独栋·伊家公寓翡翠城店南北通透阳台房1室1厅,https://hz.lianjia.com/zufang/feicuicheng1/pg4/
0,,未来科技城,余杭未来科技城欧美金融城,,1.901,精选--45.00㎡南1室1厅1卫,30.287634006890965,,/zufang/HZ2812354565163458560.html,120.01069697964955,4600,未莱公寓4天前维护,整租·欧美金融城1室1厅南,https://hz.lianjia.com/zufang/weilaikejicheng/pg2/
0,,闲林,余杭闲林绿城桃源小镇,,5.954,--119.00㎡东3室1厅1卫,30.230505491386737,,/zufang/HZ2821042724424122368.html,119.97271015488802,2000,4天前维护,整租·绿城桃源小镇3室1厅东,https://hz.lianjia.com/zufang/xianlin1/pg3/
0,,西溪,西湖西溪西溪九号,,15.724,--41.23㎡南1室1厅1卫,30.28108347148038,,/zufang/HZ2612875980896731136.html,120.15605664506884,2500,6天前维护,整租·西溪九号1室1厅南,https://hz.lianjia.com/zufang/xixi/pg3/
0,,翡翠城,余杭翡翠城西溪华东园,,3.923,--231.74㎡南5室2厅3卫,30.257420273689924,,/zufang/HZ2826747842948251648.html,120.02236435127425,16000,链家今天维护,整租·西溪华东园5室2厅南,https://hz.lianjia.com/zufang/feicuicheng1/pg4/
0,,未来科技城,余杭未来科技城融创金成英特学府,,4.582,--89.90㎡南北4室1厅2卫,30.251302042032467,,/zufang/HZ2819417640433623040.html,119.959603967328,4100,今天维护,整租·融创金成英特学府4室1厅南/北,https://hz.lianjia.com/zufang/weilaikejicheng/pg2/
0,,闲林,余杭闲林新西湖小镇,,7.364,--86.00㎡南2室1厅1卫,30.245083978886594,,/zufang/HZ2821523299514204160.html,119.92811341852295,2800,2天前维护,整租·新西湖小镇2室1厅南,https://hz.lianjia.com/zufang/xianlin1/pg3/
0,,西溪,余杭西溪西溪玫瑰,,6.046,--260.00㎡南4室2厅3卫,30.256060786574146,,/zufang/HZ2629489750582493184.html,120.04806630920353,10000,5天前维护,整租·西溪玫瑰4室2厅南,https://hz.lianjia.com/zufang/xixi/pg3/
0,,翡翠城,余杭翡翠城爱丁郡,,5.296,--87.98㎡南北2室2厅1卫,30.25763879434098,,/zufang/HZ2779630742878298112.html,120.04016032241022,4000,今天维护,整租·爱丁郡2室2厅南/北,https://hz.lianjia.com/zufang/feicuicheng1/pg4/
0,,未来科技城,余杭未来科技城中南未来里,,5.628,精选--52.00㎡东2室2厅2卫,30.293021116548257,,/zufang/HZ2824733769138192384.html,120.0493327403115,3500,未莱公寓4天前维护,合租·中南未来里2居室东卧,https://hz.lianjia.com/zufang/weilaikejicheng/pg2/
0,,闲林,余杭闲林闲林山水紫薇苑,,5.25,--88.69㎡南2室2厅2卫,30.239879699541646,,/zufang/HZ2821559232963551232.html,120.01852930539104,3800,2天前维护,整租·闲林山水紫薇苑2室2厅南,https://hz.lianjia.com/zufang/xianlin1/pg3/
1,,西溪,美好生活公寓,,7.643,90.00-100.00㎡3间在租3室2厅2卫,30.213455822781352,,/apartment/39398.html,120.00500127356354,,美好生活公寓今天维护,独栋·美好生活公寓绿城和庐臻选店高品质三室两厅3室2厅,https://hz.lianjia.com/zufang/xixi/pg3/
0,,翡翠城,余杭翡翠城西溪华东园,,3.923,--139.00㎡南北4室2厅2卫,30.257420273689924,,/zufang/HZ2809955977007472640.html,120.02236435127425,5800,4天前维护,整租·西溪华东园4室2厅南/北,https://hz.lianjia.com/zufang/feicuicheng1/pg4/
0,,未来科技城,余杭未来科技城湖山帝景湾南苑,,5.58,--126.18㎡南4室2厅2卫,30.25502992829275,,/zufang/HZ2800779540371079168.html,119.94281176276887,4000,4天前维护,整租·湖山帝景湾南苑4室2厅南,https://hz.lianjia.com/zufang/weilaikejicheng/pg2/
0,,闲林,余杭闲林闲林山水紫薇苑,,5.25,--146.00㎡南北3室2厅2卫,30.239879699541646,,/zufang/HZ2804399988615159808.html,120.01852930539104,4200,2天前维护,整租·闲林山水紫薇苑3室2厅南/北,https://hz.lianjia.com/zufang/xianlin1/pg3/
0,,西溪,西湖西溪滨江西溪明珠,,22.966,--316.00㎡南4室2厅4卫,30.214332950144062,,/zufang/HZ2620828718301446144.html,120.21847118139375,12800,5天前维护,整租·滨江西溪明珠4室2厅南,https://hz.lianjia.com/zufang/xixi/pg3/
0,,翡翠城,余杭翡翠城华元西溪欢乐城,,4.674,--50.00㎡南北1室1厅1卫,30.24684896523623,,/zufang/HZ2810731014073630720.html,120.0201803909184,3000,2天前维护,整租·华元西溪欢乐城1室1厅南/北,https://hz.lianjia.com/zufang/feicuicheng1/pg4/
0,,未来科技城,余杭未来科技城中南未来里,,5.628,精选--52.00㎡东2室2厅2卫,30.293021116548257,,/zufang/HZ2824733608236032000.html,120.0493327403115,3800,未莱公寓4天前维护,合租·中南未来里2居室东卧,https://hz.lianjia.com/zufang/weilaikejicheng/pg2/
0,,闲林,余杭闲林新西湖小镇,,7.364,--72.42㎡南北2室1厅1卫,30.245083978886594,,/zufang/HZ2803686190879358976.html,119.92811341852295,2000,3天前维护,整租·新西湖小镇2室1厅南/北,https://hz.lianjia.com/zufang/xianlin1/pg3/
1,,西溪,美好生活公寓,,7.643,96.00㎡3间在租3室2厅2卫,30.213455822781352,,/apartment/38642.html,120.00500127356354,,美好生活公寓2天前维护,独栋·美好生活公寓西溪店三房两厅居然之家3室2厅,https://hz.lianjia.com/zufang/xixi/pg3/
0,,翡翠城,余杭翡翠城西溪乐天城,,6.013,--50.00㎡南2室1厅1卫,30.250753754064927,,/zufang/HZ2373803149221183488.html,120.04396832929757,3200,贝壳优选8个月前维护,整租·西溪乐天城2室1厅南,https://hz.lianjia.com/zufang/feicuicheng1/pg4/
0,,未来科技城,余杭未来科技城西城时代家园,,3.361,--92.00㎡南北2室2厅1卫,30.27082976258941,,/zufang/HZ2818704545704845312.html,119.95947550964006,3500,今天维护,整租·西城时代家园2室2厅南/北,https://hz.lianjia.com/zufang/weilaikejicheng/pg3/
0,,闲林,余杭闲林融创金成未来海,,3.296,--89.00㎡南3室2厅2卫,30.2516668117035,,/zufang/HZ2820168753994801152.html,119.99236480995467,4000,今天维护,整租·融创金成未来海3室2厅南,https://hz.lianjia.com/zufang/xianlin1/pg3/
0,,西溪,西湖西溪西溪蝶园二期,,7.723,--138.00㎡南3室2厅2卫,30.29626610167819,,/zufang/HZ2618213236184719360.html,120.07085676914443,10000,1天前维护,整租·西溪蝶园二期3室2厅南,https://hz.lianjia.com/zufang/xixi/pg3/
0,,翡翠城,余杭翡翠城西溪乐天城,,6.013,精选--48.38㎡西北2室1厅1卫,30.250753754064927,,/zufang/HZ2816830006658080768.html,120.04396832929757,3100,华越公寓（杭州）3天前维护,整租·西溪乐天城2室1厅LOFT西北,https://hz.lianjia.com/zufang/feicuicheng1/pg4/
0,,未来科技城,余杭未来科技城中南未来里,,5.628,精选--52.00㎡东2室2厅2卫,30.293021116548257,,/zufang/HZ2824733608236032000.html,120.0493327403115,3800,未莱公寓4天前维护,合租·中南未来里2居室东卧,https://hz.lianjia.com/zufang/weilaikejicheng/pg3/
0,,闲林,余杭闲林绿城桃源小镇,,5.954,--89.76㎡南2室2厅1卫,30.230505491386737,,/zufang/HZ2820113167261646848.html,119.97271015488802,2700,今天维护,整租·绿城桃源小镇2室2厅南,https://hz.lianjia.com/zufang/xianlin1/pg3/
1,,西溪,美好生活公寓,,7.643,40.00㎡3间在租1室1厅1卫,30.213455822781352,,/apartment/40981.html,120.00500127356354,,美好生活公寓今天维护,独栋·美好生活公寓完美生活店一居室阳台户型1室1厅,https://hz.lianjia.com/zufang/xixi/pg3/
0,,翡翠城,余杭翡翠城西溪乐天城,,6.013,--49.00㎡南2室1厅1卫,30.250753754064927,,/zufang/HZ2373800904378810368.html,120.04396832929757,3200,贝壳优选7个月前维护,整租·西溪乐天城2室1厅南,https://hz.lianjia.com/zufang/feicuicheng1/pg4/
0,,未来科技城,余杭未来科技城湖山帝景湾南苑,,5.58,--106.00㎡南3室2厅2卫,30.25502992829275,,/zufang/HZ2820185290650419200.html,119.94281176276887,4000,1天前维护,整租·湖山帝景湾南苑3室2厅南,https://hz.lianjia.com/zufang/weilaikejicheng/pg3/
0,,闲林,余杭闲林盛世嘉园,,6.039,--124.00㎡南北3室2厅2卫,30.239632590359587,,/zufang/HZ2804956094521688064.html,120.03261599341522,4200,链家3天前维护,整租·盛世嘉园3室2厅南/北,https://hz.lianjia.com/zufang/xianlin1/pg3/
0,,西溪,余杭西溪华元美林公馆,,5.637,--301.72㎡南6室2厅3卫,30.285939383374657,,/zufang/HZ2618847719539605504.html,120.0507676037026,15000,1天前维护,整租·华元美林公馆6室2厅南,https://hz.lianjia.com/zufang/xixi/pg3/
0,,翡翠城,余杭翡翠城西溪乐天城,,6.013,精选--48.38㎡南2室1厅1卫,30.250753754064927,,/zufang/HZ2795609285785567232.html,120.04396832929757,3000,华越公寓（杭州）3天前维护,整租·西溪乐天城2室1厅LOFT南,https://hz.lianjia.com/zufang/feicuicheng1/pg4/
1,,未来科技城,未莱公寓,,1125.202,45.00㎡1间在租1室1厅1卫,39.99188745385222,,/apartment/41407.html,116.50095869281589,,未莱公寓4天前维护,独栋·未莱公寓欧美金融城店平层1室1厅,https://hz.lianjia.com/zufang/weilaikejicheng/pg3/
0,,闲林,余杭闲林佳兆业西溪璞园,,6.449,--89.00㎡南3室2厅1卫,30.24151740602395,,/zufang/HZ2804526312956903424.html,120.04115178220157,4000,5天前维护,整租·佳兆业西溪璞园3室2厅南,https://hz.lianjia.com/zufang/xianlin1/pg3/
1,,西溪,美好生活公寓,,7.643,45.00-50.00㎡2间在租1室1厅1卫,30.213455822781352,,/apartment/39398.html,120.00500127356354,,美好生活公寓2天前维护,独栋·美好生活公寓绿城和庐臻选店豪华装一室一厅1室1厅,https://hz.lianjia.com/zufang/xixi/pg3/
0,,翡翠城,余杭翡翠城西溪乐天城,,6.013,--48.00㎡南2室2厅1卫,30.250753754064927,,/zufang/HZ2373792394824130560.html,120.04396832929757,3200,贝壳优选7个月前维护,整租·西溪乐天城2室2厅南,https://hz.lianjia.com/zufang/feicuicheng1/pg4/
0,,未来科技城,余杭未来科技城欧美金融城,,1.901,--89.00㎡南3室2厅1卫,30.287634006890965,,/zufang/HZ2820200656021749760.html,120.01069697964955,6500,今天维护,整租·欧美金融城3室2厅南,https://hz.lianjia.com/zufang/weilaikejicheng/pg3/
0,,闲林,余杭闲林绿城桃源小镇,,5.954,--171.66㎡南4室2厅2卫,30.230505491386737,,/zufang/HZ2805036024316051456.html,119.97271015488802,3000,1天前维护,整租·绿城桃源小镇4室2厅南,https://hz.lianjia.com/zufang/xianlin1/pg3/
0,,西溪,西湖西溪西溪蝶园二期,,7.723,--173.94㎡南北3室2厅2卫,30.29626610167819,,/zufang/HZ2634875750184402944.html,120.07085676914443,11500,链家2天前维护,整租·西溪蝶园二期3室2厅南/北,https://hz.lianjia.com/zufang/xixi/pg3/
0,,翡翠城,余杭翡翠城西溪乐天城,,6.013,--50.00㎡南2室1厅1卫,30.250753754064927,,/zufang/HZ2330880097047027712.html,120.04396832929757,3200,贝壳优选7个月前维护,整租·西溪乐天城2室1厅南,https://hz.lianjia.com/zufang/feicuicheng1/pg4/
1,,未来科技城,未莱公寓,,1125.202,35.00㎡2间在租2室2厅2卫,39.99188745385222,,/apartment/41408.html,116.50095869281589,,未莱公寓5天前维护,独栋·未莱公寓中南未来里店双钥匙2室2厅,https://hz.lianjia.com/zufang/weilaikejicheng/pg3/
0,,闲林,余杭闲林雅居乐国际花园,,4.941,--127.17㎡东南4室2厅1卫,30.237128702458453,,/zufang/HZ2820850376595472384.html,119.98677582256325,2800,3天前维护,整租·雅居乐国际花园4室2厅东南,https://hz.lianjia.com/zufang/xianlin1/pg3/
1,,西溪,美好生活公寓,,7.643,45.00-50.00㎡2间在租1室1厅1卫,30.213455822781352,,/apartment/39398.html,120.00500127356354,,美好生活公寓今天维护,独栋·美好生活公寓绿城和庐臻选店通燃气一室一厅1室1厅,https://hz.lianjia.com/zufang/xixi/pg3/
0,,翡翠城,余杭翡翠城翡翠城一期,,5.262,--150.18㎡南3室2厅2卫,30.246105505005875,,/zufang/HZ2424576647106658304.html,120.02891632217238,6200,1天前维护,整租·翡翠城一期3室2厅南,https://hz.lianjia.com/zufang/feicuicheng1/pg4/
0,,未来科技城,余杭未来科技城浙富西溪堂,,0.693,--58.00㎡南1室1厅1卫,30.283595037864245,,/zufang/HZ2820282864221036544.html,119.99902502666677,4000,今天维护,整租·浙富西溪堂1室1厅南,https://hz.lianjia.com/zufang/weilaikejicheng/pg3/
0,,闲林,余杭闲林闲林山水紫薇苑,,5.25,--188.09㎡东5室1厅4卫,30.239879699541646,,/zufang/HZ2813772730707746816.html,120.01852930539104,6500,4天前维护,整租·闲林山水紫薇苑5室1厅跃层东,https://hz.lianjia.com/zufang/xianlin1/pg3/
0,,西溪,西湖西溪龙湖西溪天街,,10.526,--38.00㎡西2室0厅2卫,30.286669207147614,,/zufang/HZ2810924500085121024.html,120.10175281936296,6000,链家今天维护,整租·龙湖西溪天街2室0厅西,https://hz.lianjia.com/zufang/xixi/pg4/
0,,翡翠城,余杭翡翠城翡翠城一期,,5.262,--146.28㎡南北3室2厅2卫,30.246105505005875,,/zufang/HZ2386873771501035520.html,120.02891632217238,4200,链家2天前维护,整租·翡翠城一期3室2厅南/北,https://hz.lianjia.com/zufang/feicuicheng1/pg4/
0,,未来科技城,余杭未来科技城华夏之心,,1.924,--63.24㎡西1室1厅1卫,30.289763003395066,,/zufang/HZ2820263733815943168.html,120.00979103854273,5100,今天维护,整租·华夏之心1室1厅西,https://hz.lianjia.com/zufang/weilaikejicheng/pg3/
0,,闲林,余杭闲林佳兆业西溪璞园,,6.449,--124.00㎡南西南4室2厅2卫,30.24151740602395,,/zufang/HZ2813803492882792448.html,120.04115178220157,4700,今天维护,整租·佳兆业西溪璞园4室2厅南/西南,https://hz.lianjia.com/zufang/xianlin1/pg3/
1,,西溪,美好生活公寓,,7.643,45.00㎡3间在租1室1厅1卫,30.213455822781352,,/apartment/38642.html,120.00500127356354,,美好生活公寓今天维护,独栋·美好生活公寓西溪店店长首推网红一居1室1厅,https://hz.lianjia.com/zufang/xixi/pg4/
0,,翡翠城,余杭翡翠城西溪乐天城,,6.013,--50.00㎡南2室1厅1卫,30.250753754064927,,/zufang/HZ2378161567402565632.html,120.04396832929757,3000,贝壳优选1年前维护,整租·西溪乐天城2室1厅南,https://hz.lianjia.com/zufang/feicuicheng1/pg4/
0,,未来科技城,余杭未来科技城同城印象花苑东区,,3.416,--134.00㎡南北3室2厅1卫,30.275024507406613,,/zufang/HZ2818156184975187968.html,119.95748962564916,3900,4天前维护,整租·同城印象花苑东区3室2厅南/北,https://hz.lianjia.com/zufang/weilaikejicheng/pg3/
0,,闲林,余杭闲林绿城桃源小镇,,5.954,--89.90㎡南3室2厅1卫,30.230505491386737,,/zufang/HZ2813800084028784640.html,119.97271015488802,4200,2天前维护,整租·绿城桃源小镇3室2厅南,https://hz.lianjia.com/zufang/xianlin1/pg3/
0,,西溪,西湖西溪茶市新村,,15.724,--84.00㎡南3室1厅1卫,30.28108347148038,,/zufang/HZ2811652641921712128.html,120.15605664506884,3600,2天前维护,整租·茶市新村3室1厅南,https://hz.lianjia.com/zufang/xixi/pg4/
0,,翡翠城,余杭翡翠城西溪乐天城,,6.013,--50.00㎡南2室1厅1卫,30.250753754064927,,/zufang/HZ2330288337602494464.html,120.04396832929757,3200,贝壳优选8个月前维护,整租·西溪乐天城2室1厅南,https://hz.lianjia.com/zufang/feicuicheng1/pg4/
0,,未来科技城,余杭未来科技城海创绿谷,,3.745,--49.07㎡北1室1厅1卫,30.29482124890072,,/zufang/HZ2801975371237965824.html,120.02803203022835,3700,2天前维护,整租·海创绿谷1室1厅北,https://hz.lianjia.com/zufang/weilaikejicheng/pg3/
0,,闲林,余杭闲林绿城桃源小镇,,5.954,--127.00㎡南3室2厅3卫,30.230505491386737,,/zufang/HZ2785543855250866176.html,119.97271015488802,3500,1天前维护,整租·绿城桃源小镇3室2厅南,https://hz.lianjia.com/zufang/xianlin1/pg3/
1,,西溪,美好生活公寓,,7.643,90.00-100.00㎡3间在租3室2厅2卫,30.213455822781352,,/apartment/39398.html,120.00500127356354,,美好生活公寓今天维护,独栋·美好生活公寓绿城和庐臻选店臻选三室两厅3室2厅,https://hz.lianjia.com/zufang/xixi/pg4/
0,,翡翠城,余杭翡翠城西溪乐天城,,6.013,--48.00㎡南1室1厅1卫,30.250753754064927,,/zufang/HZ2330161157916065792.html,120.04396832929757,3150,贝壳优选9天前维护,整租·西溪乐天城1室1厅南,https://hz.lianjia.com/zufang/feicuicheng1/pg4/
0,,未来科技城,余杭未来科技城新湖果岭,,2.331,--138.08㎡南4室2厅2卫,30.26156826085835,,/zufang/HZ2801451818314637312.html,119.98415259081301,4000,4天前维护,整租·新湖果岭4室2厅复式南,https://hz.lianjia.com/zufang/weilaikejicheng/pg3/
0,,闲林,余杭闲林绿城桃源小镇,,5.954,--65.00㎡南2室1厅1卫,30.230505491386737,,/zufang/HZ2787679755606949888.html,119.97271015488802,3000,6天前维护,整租·绿城桃源小镇2室1厅南,https://hz.lianjia.com/zufang/xianlin1/pg3/
0,,西溪,西湖西溪坤和西溪里璞园,,15.724,--137.44㎡南3室2厅2卫,30.28108347148038,,/zufang/HZ2812877380652105728.html,120.15605664506884,8000,链家3天前维护,整租·坤和西溪里璞园3室2厅南,https://hz.lianjia.com/zufang/xixi/pg4/
0,,翡翠城,余杭翡翠城西溪乐天城,,6.013,精选--45.97㎡南2室1厅1卫,30.250753754064927,,/zufang/HZ2789084485990760448.html,120.04396832929757,3000,华越公寓（杭州）3天前维护,整租·西溪乐天城2室1厅LOFT南,https://hz.lianjia.com/zufang/feicuicheng1/pg4/
1,,未来科技城,未莱公寓,,1125.202,42.00-55.00㎡3间在租2室1厅1卫,39.99188745385222,,/apartment/41407.html,116.50095869281589,,未莱公寓4天前维护,独栋·未莱公寓欧美金融城店loft2室1厅,https://hz.lianjia.com/zufang/weilaikejicheng/pg3/
0,,闲林,余杭闲林闲林山水丹枫苑,,5.481,--200.00㎡南北3室2厅2卫,30.239727050414576,,/zufang/HZ2812137187372974080.html,120.02294968714455,5000,链家1天前维护,整租·闲林山水丹枫苑3室2厅南/北,https://hz.lianjia.com/zufang/xianlin1/pg3/
1,,西溪,美好生活公寓,,7.643,90.00-100.00㎡3间在租3室2厅2卫,30.213455822781352,,/apartment/39398.html,120.00500127356354,,美好生活公寓今天维护,独栋·美好生活公寓绿城和庐臻选店精装修三房两厅3室2厅,https://hz.lianjia.com/zufang/xixi/pg4/
0,,翡翠城,余杭翡翠城西溪乐天城,,6.013,--50.00㎡南2室1厅1卫,30.250753754064927,,/zufang/HZ2330281705073811456.html,120.04396832929757,3300,贝壳优选7个月前维护,整租·西溪乐天城2室1厅南,https://hz.lianjia.com/zufang/feicuicheng1/pg4/
0,,未来科技城,余杭未来科技城众安学君里,,3.832,--119.00㎡南西南3室2厅2卫,30.252119086759578,,/zufang/HZ2801433208380456960.html,119.97109302530896,2200,4天前维护,整租·众安学君里3室2厅南/西南,https://hz.lianjia.com/zufang/weilaikejicheng/pg3/
0,,闲林,余杭闲林绿城桃源小镇,,5.954,--115.00㎡南4室2厅2卫,30.230505491386737,,/zufang/HZ2812152722999222272.html,119.97271015488802,1800,2天前维护,整租·绿城桃源小镇4室2厅南,https://hz.lianjia.com/zufang/xianlin1/pg3/
0,,西溪,余杭西溪远洋西溪公馆,,5.621,--170.00㎡南4室2厅3卫,30.28962197090435,,/zufang/HZ2812280282261504000.html,120.05005111522783,10000,1天前维护,整租·远洋西溪公馆4室2厅南,https://hz.lianjia.com/zufang/xixi/pg4/
0,,翡翠城,余杭翡翠城西溪乐天城,,6.013,精选--48.38㎡西北2室1厅1卫,30.250753754064927,,/zufang/HZ2789267321229942784.html,120.04396832929757,3200,华越公寓（杭州）3天前维护,整租·西溪乐天城2室1厅LOFT西北,https://hz.lianjia.com/zufang/feicuicheng1/pg4/
0,,未来科技城,余杭未来科技城创客空间大厦,,2.312,精选--45.00㎡西2室1厅1卫,30.294322241929063,,/zufang/HZ2814492130095923200.html,120.01108325101883,4100,未莱公寓今天维护,整租·创客空间大厦2室1厅LOFT西,https://hz.lianjia.com/zufang/weilaikejicheng/pg3/
0,,闲林,余杭闲林绿城桃源小镇品霞苑,,6.25,--125.00㎡南西4室2厅2卫,30.22976806904107,,/zufang/HZ2812219409907580928.html,119.96634727729973,1600,今天维护,整租·绿城桃源小镇品霞苑4室2厅南/西,https://hz.lianjia.com/zufang/xianlin1/pg3/
0,,西溪,余杭西溪远洋西溪公馆,,5.621,--105.13㎡南2室1厅1卫,30.28962197090435,,/zufang/HZ2823283725667155968.html,120.05005111522783,6500,1天前维护,整租·远洋西溪公馆2室1厅南,https://hz.lianjia.com/zufang/xixi/pg4/
0,,翡翠城,余杭翡翠城翡翠城三期,,5.24,--177.72㎡南北4室2厅2卫,30.246499074778125,,/zufang/HZ2465139862895345664.html,120.02908295784447,5500,链家5天前维护,整租·翡翠城三期4室2厅南/北,https://hz.lianjia.com/zufang/feicuicheng1/pg4/
0,,未来科技城,余杭未来科技城庭院深深,,4.095,--135.00㎡南3室2厅2卫,30.25131966830845,,/zufang/HZ2801473296557162496.html,119.96755630668562,3500,今天维护,整租·庭院深深3室2厅南,https://hz.lianjia.com/zufang/weilaikejicheng/pg3/
0,,闲林,余杭闲林荆山翠谷,,6.404,--87.70㎡南北2室1厅1卫,30.239460674384226,,/zufang/HZ2814413591879892992.html,120.03811002991424,3500,1天前维护,整租·荆山翠谷2室1厅南/北,https://hz.lianjia.com/zufang/xianlin1/pg3/
0,,西溪,西湖西溪西溪诚园致诚苑,,9.136,--87.38㎡南北2室1厅1卫,30.29849048120104,,/zufang/HZ2823897840039247872.html,120.08535452176997,9000,链家2天前维护,整租·西溪诚园致诚苑2室1厅南/北,https://hz.lianjia.com/zufang/xixi/pg4/
0,,翡翠城,余杭翡翠城西溪乐天城,,6.013,精选--45.97㎡南2室1厅1卫,30.250753754064927,,/zufang/HZ2821913843582631936.html,120.04396832929757,3200,华越公寓（杭州）3天前维护,整租·西溪乐天城2室1厅LOFT南,https://hz.lianjia.com/zufang/feicuicheng1/pg4/
0,,未来科技城,余杭未来科技城众安学君里,,3.832,--129.02㎡南4室2厅2卫,30.252119086759578,,/zufang/HZ2801583213821575168.html,119.97109302530896,2700,1天前维护,整租·众安学君里4室2厅南,https://hz.lianjia.com/zufang/weilaikejicheng/pg3/
0,,闲林,余杭闲林竹海水韵,,4.235,--89.00㎡南3室2厅1卫,30.24352799701941,,/zufang/HZ2815082666439737344.html,119.98671186321094,3800,1天前维护,整租·竹海水韵3室2厅南,https://hz.lianjia.com/zufang/xianlin1/pg3/
0,,西溪,余杭西溪香港兴业耦园,,5.529,--176.00㎡南5室2厅3卫,30.273700900793585,,/zufang/HZ2795533086421958656.html,120.04920805550671,15800,4天前维护,整租·香港兴业耦园5室2厅复式南,https://hz.lianjia.com/zufang/xixi/pg4/
0,,翡翠城,余杭翡翠城金都雅苑,,4.789,--200.00㎡南5室2厅3卫,30.244193322904515,,/zufang/HZ2496144689531994112.html,120.01761060834599,8500,今天维护,整租·金都雅苑5室2厅复式南,https://hz.lianjia.com/zufang/feicuicheng1/pg4/
0,,未来科技城,余杭未来科技城保亿丽景山,,3.069,--89.00㎡南3室2厅1卫,30.256212942140287,,/zufang/HZ2802022237241352192.html,119.97900287481596,3800,1天前维护,整租·保亿丽景山3室2厅南,https://hz.lianjia.com/zufang/weilaikejicheng/pg3/
0,,闲林,余杭闲林爵士风情花园,,4.459,--113.00㎡南3室2厅2卫,30.241357115431928,,/zufang/HZ2814471157015912448.html,119.99631501860425,3300,7天前维护,整租·爵士风情花园3室2厅南,https://hz.lianjia.com/zufang/xianlin1/pg3/
0,,西溪,西湖西溪万科坤和玉泉,,8.696,--89.72㎡南北3室2厅1卫,30.24350795137407,,/zufang/HZ2795496657373110272.html,120.0715651728696,7200,链家5天前维护,整租·万科坤和玉泉3室2厅南/北,https://hz.lianjia.com/zufang/xixi/pg4/
0,,翡翠城,余杭翡翠城西溪乐天城,,6.013,精选--48.38㎡南2室1厅1卫,30.250753754064927,,/zufang/HZ2826619634969747456.html,120.04396832929757,3000,华越公寓（杭州）2天前维护,整租·西溪乐天城2室1厅LOFT南,https://hz.lianjia.com/zufang/feicuicheng1/pg4/
0,,未来科技城,余杭未来科技城合景映月台,,2.743,--86.23㎡南3室2厅1卫,30.27820381869327,,/zufang/HZ2801515902674681856.html,120.02064220978107,6500,4天前维护,整租·合景映月台3室2厅南,https://hz.lianjia.com/zufang/weilaikejicheng/pg3/
0,,闲林,余杭闲林绿城桃源小镇,,5.954,--158.00㎡南4室2厅2卫,30.230505491386737,,/zufang/HZ2735493031775453184.html,119.97271015488802,4500,1天前维护,整租·绿城桃源小镇4室2厅跃层南,https://hz.lianjia.com/zufang/xianlin1/pg4/
1,,西溪,美好生活公寓,,7.643,76.00㎡3间在租2室2厅1卫,30.213455822781352,,/apartment/38642.html,120.00500127356354,,美好生活公寓2天前维护,独栋·美好生活公寓西溪店西溪品质两房两厅2室2厅,https://hz.lianjia.com/zufang/xixi/pg4/
0,,翡翠城,余杭翡翠城西溪乐天城,,6.013,--48.00㎡南2室1厅1卫,30.250753754064927,,/zufang/HZ2384031499684429824.html,120.04396832929757,3300,贝壳优选9天前维护,整租·西溪乐天城2室1厅南,https://hz.lianjia.com/zufang/feicuicheng1/pg4/
0,,未来科技城,余杭未来科技城欧美金融城,,1.901,--46.55㎡北1室0厅1卫,30.287634006890965,,/zufang/HZ2818873751394066432.html,120.01069697964955,4800,今天维护,整租·欧美金融城1室0厅北,https://hz.lianjia.com/zufang/weilaikejicheng/pg3/
0,,闲林,余杭闲林绿城桃源小镇品霞苑,,6.25,--124.44㎡南北4室2厅2卫,30.22976806904107,,/zufang/HZ2734671201938456576.html,119.96634727729973,3000,3天前维护,整租·绿城桃源小镇品霞苑4室2厅南/北,https://hz.lianjia.com/zufang/xianlin1/pg4/
0,,西溪,余杭西溪大华西溪风情,,4.889,--135.00㎡南3室2厅2卫,30.28460189164612,,/zufang/HZ2747890253405888512.html,120.0430749644679,8000,链家1天前维护,整租·大华西溪风情3室2厅南,https://hz.lianjia.com/zufang/xixi/pg4/
0,,翡翠城,余杭翡翠城西溪乐天城,,6.013,精选--50.63㎡西北2室1厅1卫,30.250753754064927,,/zufang/HZ2826009738926899200.html,120.04396832929757,3200,华越公寓（杭州）3天前维护,整租·西溪乐天城2室1厅LOFT西北,https://hz.lianjia.com/zufang/feicuicheng1/pg4/
0,,未来科技城,余杭未来科技城欧美金融城,,1.901,--64.00㎡北2室1厅1卫,30.287634006890965,,/zufang/HZ2820399263832883200.html,120.01069697964955,4900,链家1天前维护,整租·欧美金融城2室1厅北,https://hz.lianjia.com/zufang/weilaikejicheng/pg3/
0,,闲林,余杭闲林荆山翠谷,,6.404,--242.18㎡东南4室2厅3卫,30.239460674384226,,/zufang/HZ2736139734572072960.html,120.03811002991424,9500,2天前维护,整租·荆山翠谷4室2厅东南,https://hz.lianjia.com/zufang/xianlin1/pg4/
1,,西溪,美好生活公寓,,7.643,76.00㎡3间在租2室2厅1卫,30.213455822781352,,/apartment/38642.html,120.00500127356354,,美好生活公寓4天前维护,独栋·美好生活公寓西溪店特价品质两居室2室2厅,https://hz.lianjia.com/zufang/xixi/pg4/
0,,翡翠城,余杭翡翠城翡翠城一期,,5.262,--159.95㎡南3室2厅2卫,30.246105505005875,,/zufang/HZ2771780686297186304.html,120.02891632217238,5800,今天维护,整租·翡翠城一期3室2厅南,https://hz.lianjia.com/zufang/feicuicheng1/pg5/
0,,未来科技城,余杭未来科技城青枫墅园三期,,3.227,--89.09㎡南西南西3室2厅1卫,30.286964066558873,,/zufang/HZ2820427778464423936.html,120.0252717170573,3700,1天前维护,整租·青枫墅园三期3室2厅南/西南/西,https://hz.lianjia.com/zufang/weilaikejicheng/pg3/
0,,闲林,余杭闲林绿城桃源小镇品霞苑,,6.25,--88.00㎡南3室1厅1卫,30.22976806904107,,/zufang/HZ2739882176697860096.html,119.96634727729973,2100,4天前维护,整租·绿城桃源小镇品霞苑3室1厅南,https://hz.lianjia.com/zufang/xianlin1/pg4/
0,,西溪,余杭西溪香港兴业耦园,,5.529,--141.30㎡南4室2厅2卫,30.273700900793585,,/zufang/HZ2749896764734840832.html,120.04920805550671,6000,链家1天前维护,整租·香港兴业耦园4室2厅跃层南,https://hz.lianjia.com/zufang/xixi/pg4/
1,,翡翠城,麦家公寓,,34.467,28.00㎡1间在租1室0厅1卫,30.339323971117015,,/apartment/13365.html,120.34500802264861,,麦家公寓2天前维护,独栋·麦家公寓靖源国际店日系田园（落地窗）开间,https://hz.lianjia.com/zufang/feicuicheng1/pg5/
0,,未来科技城,余杭未来科技城仓乐雅苑,,3.227,精选--23.00㎡南3室3厅3卫,30.286964066558873,,/zufang/HZ2630094367917867008.html,120.0252717170573,1480,鹿汀公寓1个月前维护,合租·仓乐雅苑3居室南卧,https://hz.lianjia.com/zufang/weilaikejicheng/pg3/
0,,闲林,余杭闲林绿城桃源小镇品霞苑,,6.25,--88.00㎡南3室1厅1卫,30.22976806904107,,/zufang/HZ2739866539728838656.html,119.96634727729973,2000,4天前维护,整租·绿城桃源小镇品霞苑3室1厅南,https://hz.lianjia.com/zufang/xianlin1/pg4/
0,,西溪,余杭西溪绿城西溪融庄,,5.399,--135.00㎡南3室2厅2卫,30.276515892206078,,/zufang/HZ2799278157160005632.html,120.04825136013858,8000,3天前维护,整租·绿城西溪融庄3室2厅南,https://hz.lianjia.com/zufang/xixi/pg4/
0,,翡翠城,余杭翡翠城翡翠城二期,,5.527,--155.00㎡南3室2厅2卫,30.244680107694965,,/zufang/HZ2778294935965933568.html,120.03121104359761,8000,2天前维护,整租·翡翠城二期3室2厅南,https://hz.lianjia.com/zufang/feicuicheng1/pg5/
0,,未来科技城,余杭未来科技城中南樾府,,0.931,--128.00㎡南4室2厅2卫,30.274462395908238,,/zufang/HZ2802292747921530880.html,119.99788444816075,7500,链家3天前维护,整租·中南樾府4室2厅南,https://hz.lianjia.com/zufang/weilaikejicheng/pg3/
0,,闲林,余杭闲林融创金成未来海,,3.296,--138.00㎡南4室2厅2卫,30.2516668117035,,/zufang/HZ2739884190803181568.html,119.99236480995467,5200,4天前维护,整租·融创金成未来海4室2厅南,https://hz.lianjia.com/zufang/xianlin1/pg4/
0,,西溪,余杭西溪远洋西溪公馆,,5.621,--55.00㎡南1室1厅1卫,30.28962197090435,,/zufang/HZ2750717300981104640.html,120.05005111522783,3500,3天前维护,整租·远洋西溪公馆1室1厅南,https://hz.lianjia.com/zufang/xixi/pg4/
0,,翡翠城,,,,16.00-38.00㎡3间在租1室1厅1卫,,,/apartment/28323.html,,1080-1580,伊家创客公寓5天前维护,独栋·伊家创客公寓伊家创客社区精美单间1室1厅,https://hz.lianjia.com/zufang/feicuicheng1/pg5/
0,,未来科技城,余杭未来科技城西溪蓝海,,2.159,精选--25.00㎡南4室2厅4卫,30.279410565232137,,/zufang/HZ2335526049708261376.html,120.01468392899449,1880,鹿汀公寓26天前维护,合租·西溪蓝海4居室南卧,https://hz.lianjia.com/zufang/weilaikejicheng/pg3/
0,,闲林,余杭闲林融创金成未来海,,3.296,--88.38㎡南北3室2厅2卫,30.2516668117035,,/zufang/HZ2735390061327040512.html,119.99236480995467,2500,5天前维护,整租·融创金成未来海3室2厅南/北,https://hz.lianjia.com/zufang/xianlin1/pg4/
0,,西溪,余杭西溪远洋西溪公馆,,5.621,--170.00㎡南4室2厅3卫,30.28962197090435,,/zufang/HZ2750723484551757824.html,120.05005111522783,8000,1天前维护,整租·远洋西溪公馆4室2厅南,https://hz.lianjia.com/zufang/xixi/pg4/
0,,翡翠城,余杭翡翠城翡翠城一期,,5.262,--138.17㎡南3室2厅2卫,30.246105505005875,,/zufang/HZ2773017461355200512.html,120.02891632217238,7500,3天前维护,整租·翡翠城一期3室2厅南,https://hz.lianjia.com/zufang/feicuicheng1/pg5/
0,,未来科技城,余杭未来科技城阳光城未来悦MAX,,0.783,--125.81㎡南4室2厅2卫,30.274755109112583,,/zufang/HZ2802168971452235776.html,119.99528160794559,7000,3天前维护,整租·阳光城未来悦MAX4室2厅南,https://hz.lianjia.com/zufang/weilaikejicheng/pg3/
0,,闲林,余杭闲林竹海水韵,,4.235,--89.00㎡南3室2厅1卫,30.24352799701941,,/zufang/HZ2737032996283752448.html,119.98671186321094,3000,1天前维护,整租·竹海水韵3室2厅南,https://hz.lianjia.com/zufang/xianlin1/pg4/
0,,西溪,西湖西溪西溪九号,,15.724,--48.74㎡南2室1厅1卫,30.28108347148038,,/zufang/HZ2796312122412777472.html,120.15605664506884,4200,2天前维护,整租·西溪九号2室1厅南,https://hz.lianjia.com/zufang/xixi/pg4/
0,,翡翠城,,,,35.00㎡1间在租1室0厅1卫,,,/apartment/11925.html,,1630,美好时光酒店公寓6天前维护,独栋·美好时光酒店公寓五常店NT独卫两张床北欧凤开间,https://hz.lianjia.com/zufang/feicuicheng1/pg5/
0,,未来科技城,余杭未来科技城西溪蓝海,,2.159,精选--28.00㎡南4室3厅4卫,30.279410565232137,,/zufang/HZ2791762619457863680.html,120.01468392899449,1680,鹿汀公寓1个月前维护,合租·西溪蓝海4居室南卧,https://hz.lianjia.com/zufang/weilaikejicheng/pg3/
0,,闲林,余杭闲林盛世嘉园,,6.039,--264.24㎡南5室2厅3卫,30.239632590359587,,/zufang/HZ2738960159434358784.html,120.03261599341522,7000,1天前维护,整租·盛世嘉园5室2厅复式南,https://hz.lianjia.com/zufang/xianlin1/pg4/
0,,西溪,余杭西溪香港兴业耦园,,5.529,--121.00㎡南4室2厅2卫,30.273700900793585,,/zufang/HZ2796194827442585600.html,120.04920805550671,7200,链家今天维护,整租·香港兴业耦园4室2厅南,https://hz.lianjia.com/zufang/xixi/pg4/
0,,翡翠城,余杭翡翠城翡翠城三期,,5.24,--151.36㎡东南3室2厅2卫,30.246499074778125,,/zufang/HZ2773720899277832192.html,120.02908295784447,8500,2天前维护,整租·翡翠城三期3室2厅东/南,https://hz.lianjia.com/zufang/feicuicheng1/pg5/
0,,未来科技城,余杭未来科技城众安学君里,,3.832,--89.00㎡南3室2厅1卫,30.252119086759578,,/zufang/HZ2818965583381397504.html,119.97109302530896,3800,今天维护,整租·众安学君里3室2厅南,https://hz.lianjia.com/zufang/weilaikejicheng/pg3/
0,,闲林,余杭闲林绿城桃源小镇,,5.954,--128.00㎡南4室2厅3卫,30.230505491386737,,/zufang/HZ2739106259381780480.html,119.97271015488802,8000,3天前维护,整租·绿城桃源小镇4室2厅南,https://hz.lianjia.com/zufang/xianlin1/pg4/
0,,西溪,西湖西溪坤和和家园,,7.935,--167.00㎡南北4室2厅2卫,30.247432061206066,,/zufang/HZ2796174254305968128.html,120.06502101722941,10500,今天维护,整租·坤和和家园4室2厅南/北,https://hz.lianjia.com/zufang/xixi/pg4/
0,,翡翠城,余杭翡翠城金都雅苑,,4.789,--221.99㎡南北5室1厅3卫,30.244193322904515,,/zufang/HZ2775250439950835712.html,120.01761060834599,6000,链家3天前维护,整租·金都雅苑5室1厅跃层南/北,https://hz.lianjia.com/zufang/feicuicheng1/pg5/
0,,未来科技城,余杭未来科技城西溪蓝海,,2.159,精选--25.00㎡南4室3厅4卫,30.279410565232137,,/zufang/HZ2791757755650670592.html,120.01468392899449,1880,鹿汀公寓1个月前维护,合租·西溪蓝海4居室南卧,https://hz.lianjia.com/zufang/weilaikejicheng/pg3/
0,,闲林,余杭闲林绿城桃源小镇品霞苑,,6.25,--87.00㎡南3室1厅1卫,30.22976806904107,,/zufang/HZ2738959591324270592.html,119.96634727729973,1500,1天前维护,整租·绿城桃源小镇品霞苑3室1厅南,https://hz.lianjia.com/zufang/xianlin1/pg4/
1,,西溪,美好生活公寓,,7.643,91.00㎡3间在租3室2厅2卫,30.213455822781352,,/apartment/40981.html,120.00500127356354,,美好生活公寓今天维护,独栋·美好生活公寓完美生活店90平大三居3室2厅,https://hz.lianjia.com/zufang/xixi/pg4/
0,,翡翠城,余杭翡翠城翡翠城三期,,5.24,--279.00㎡南5室2厅3卫,30.246499074778125,,/zufang/HZ2775295472129015808.html,120.02908295784447,9500,2天前维护,整租·翡翠城三期5室2厅南,https://hz.lianjia.com/zufang/feicuicheng1/pg5/
0,,未来科技城,余杭未来科技城保亿丽景山,,3.069,--87.64㎡南3室2厅1卫,30.256212942140287,,/zufang/HZ2820858483858489344.html,119.97900287481596,3900,2天前维护,整租·保亿丽景山3室2厅南,https://hz.lianjia.com/zufang/weilaikejicheng/pg3/
0,,闲林,余杭闲林闲林山水紫薇苑,,5.25,--135.00㎡南3室1厅2卫,30.239879699541646,,/zufang/HZ2368012840675049472.html,120.01852930539104,3400,链家1天前维护,整租·闲林山水紫薇苑3室1厅南,https://hz.lianjia.com/zufang/xianlin1/pg4/
0,,西溪,余杭西溪远洋西溪公馆,,5.621,--140.00㎡南4室2厅2卫,30.28962197090435,,/zufang/HZ2755008279066722304.html,120.05005111522783,7200,1天前维护,整租·远洋西溪公馆4室2厅南,https://hz.lianjia.com/zufang/xixi/pg4/
0,,翡翠城,余杭翡翠城翡翠城梧桐郡,,4.277,--168.78㎡南5室2厅3卫,30.253900245429797,,/zufang/HZ2692675684467482624.html,120.02354840776695,8500,3天前维护,整租·翡翠城梧桐郡5室2厅南,https://hz.lianjia.com/zufang/feicuicheng1/pg5/
0,,未来科技城,余杭未来科技城西溪蓝海,,2.159,精选--26.00㎡南4室3厅4卫,30.279410565232137,,/zufang/HZ2791243679438733312.html,120.01468392899449,1988,鹿汀公寓1个月前维护,合租·西溪蓝海4居室南卧,https://hz.lianjia.com/zufang/weilaikejicheng/pg3/
0,,闲林,余杭闲林融创金成江南府,,3.993,--146.18㎡南北4室2厅2卫,30.24924504928577,,/zufang/HZ2745458148860510208.html,119.97358797903236,6600,4天前维护,整租·融创金成江南府4室2厅南/北,https://hz.lianjia.com/zufang/xianlin1/pg4/
1,,西溪,美好生活公寓,,7.643,71.00-75.00㎡3间在租2室2厅1卫,30.213455822781352,,/apartment/38642.html,120.00500127356354,,美好生活公寓今天维护,独栋·美好生活公寓西溪店西湖之畔两居2室2厅,https://hz.lianjia.com/zufang/xixi/pg4/
0,,翡翠城,余杭翡翠城翡翠城二期,,5.527,--162.00㎡南4室2厅2卫,30.244680107694965,,/zufang/HZ2782538296302247936.html,120.03121104359761,6500,4天前维护,整租·翡翠城二期4室2厅南,https://hz.lianjia.com/zufang/feicuicheng1/pg5/
0,,未来科技城,余杭未来科技城杉杉恒和依山郡,,16.289,--91.25㎡西北2室1厅1卫,30.35891929754639,,/zufang/HZ2799803162620600320.html,119.84837964179621,1200,1天前维护,整租·杉杉恒和依山郡2室1厅西北,https://hz.lianjia.com/zufang/weilaikejicheng/pg4/
0,,闲林,余杭闲林德信早安,,6.225,--89.00㎡南3室2厅1卫,30.248291021655064,,/zufang/HZ2745563882944217088.html,119.93996727837151,3000,1天前维护,整租·德信早安3室2厅南,https://hz.lianjia.com/zufang/xianlin1/pg4/
0,,西溪,西湖西溪坤和西溪里,,7.286,--171.07㎡南北4室1厅2卫,30.297655428879224,,/zufang/HZ2797801625719414784.html,120.06578655318502,12000,链家4天前维护,整租·坤和西溪里4室1厅南/北,https://hz.lianjia.com/zufang/xixi/pg4/
0,,翡翠城,,,,30.00㎡1间在租1室0厅1卫,,,/apartment/11925.html,,1830,美好时光酒店公寓6天前维护,独栋·美好时光酒店公寓五常店NT网红独厨大户型开间,https://hz.lianjia.com/zufang/feicuicheng1/pg5/
0,,未来科技城,余杭未来科技城欧美金融城,,1.901,精选--29.00㎡南3室2厅3卫,30.287634006890965,,/zufang/HZ2775119570779258880.html,120.01069697964955,3288,鹿汀公寓19天前维护,合租·欧美金融城3居室南卧,https://hz.lianjia.com/zufang/weilaikejicheng/pg4/
0,,闲林,余杭闲林竹海水韵,,4.235,--88.92㎡南3室2厅1卫,30.24352799701941,,/zufang/HZ2740415098253754368.html,119.98671186321094,3200,1天前维护,整租·竹海水韵3室2厅南,https://hz.lianjia.com/zufang/xianlin1/pg4/
1,,西溪,美好生活公寓,,7.643,70.00-80.00㎡3间在租2室2厅1卫,30.213455822781352,,/apartment/39398.html,120.00500127356354,,美好生活公寓2天前维护,独栋·美好生活公寓绿城和庐臻选店高品质两室两厅2室2厅,https://hz.lianjia.com/zufang/xixi/pg4/
0,,翡翠城,余杭翡翠城金都雅苑,,4.789,--129.11㎡东南南3室2厅2卫,30.244193322904515,,/zufang/HZ2783914061903953920.html,120.01761060834599,4500,6天前维护,整租·金都雅苑3室2厅东南/南,https://hz.lianjia.com/zufang/feicuicheng1/pg5/
0,,未来科技城,余杭未来科技城西城时代家园,,3.361,--165.30㎡南4室2厅2卫,30.27082976258941,,/zufang/HZ2799143100504096768.html,119.95947550964006,6050,今天维护,整租·西城时代家园4室2厅南,https://hz.lianjia.com/zufang/weilaikejicheng/pg4/
0,,闲林,余杭闲林绿城桃源小镇,,5.954,--402.29㎡南5室3厅4卫,30.230505491386737,,/zufang/HZ2739190559658229760.html,119.97271015488802,4500,1天前维护,整租·绿城桃源小镇5室3厅南,https://hz.lianjia.com/zufang/xianlin1/pg4/
0,,西溪,余杭西溪远洋西溪公馆,,5.621,--60.00㎡南1室1厅1卫,30.28962197090435,,/zufang/HZ2799949545541476352.html,120.05005111522783,3200,3天前维护,整租·远洋西溪公馆1室1厅南,https://hz.lianjia.com/zufang/xixi/pg4/
0,,翡翠城,,,,22.00-42.00㎡50间在租1室1厅1卫,,,/apartment/17506.html,,1430-1880,乐乎有朋1个月前维护,独栋·乐乎有朋美好时光免押金入住特价房1室1厅,https://hz.lianjia.com/zufang/feicuicheng1/pg5/
0,,未来科技城,余杭未来科技城仓乐雅苑,,3.227,精选--26.00㎡南3室3厅3卫,30.286964066558873,,/zufang/HZ2724534723761414144.html,120.0252717170573,1680,鹿汀公寓1个月前维护,合租·仓乐雅苑3居室南卧,https://hz.lianjia.com/zufang/weilaikejicheng/pg4/
0,,闲林,余杭闲林盛世嘉园,,6.039,--249.74㎡南5室3厅3卫,30.239632590359587,,/zufang/HZ2739714327665197056.html,120.03261599341522,8500,1天前维护,整租·盛世嘉园5室3厅南,https://hz.lianjia.com/zufang/xianlin1/pg4/
1,,西溪,美好生活公寓,,7.643,70.00-80.00㎡3间在租2室2厅1卫,30.213455822781352,,/apartment/39398.html,120.00500127356354,,美好生活公寓2天前维护,独栋·美好生活公寓绿城和庐臻选店通燃气两室两厅2室2厅,https://hz.lianjia.com/zufang/xixi/pg4/
0,,翡翠城,余杭翡翠城翡翠城一期,,5.262,--15.00㎡北4室2厅2卫,30.246105505005875,,/zufang/HZ2781926852367745024.html,120.02891632217238,1800,今天维护,合租·翡翠城一期4居室北卧,https://hz.lianjia.com/zufang/feicuicheng1/pg5/
0,,未来科技城,余杭未来科技城合景映月台,,2.743,--139.40㎡南4室2厅2卫,30.27820381869327,,/zufang/HZ2799346527410331648.html,120.02064220978107,12000,今天维护,整租·合景映月台4室2厅南,https://hz.lianjia.com/zufang/weilaikejicheng/pg4/
0,,闲林,余杭闲林闲林山水丹枫苑,,5.481,--204.11㎡南4室2厅3卫,30.239727050414576,,/zufang/HZ2489094461574094848.html,120.02294968714455,3500,2天前维护,整租·闲林山水丹枫苑4室2厅跃层南,https://hz.lianjia.com/zufang/xianlin1/pg4/
0,,西溪,余杭西溪大华西溪风情,,4.889,--207.00㎡南4室2厅2卫,30.28460189164612,,/zufang/HZ2755831277260382208.html,120.0430749644679,12500,3天前维护,整租·大华西溪风情4室2厅南,https://hz.lianjia.com/zufang/xixi/pg4/
0,,翡翠城,余杭翡翠城翡翠城二期,,5.527,--90.47㎡南2室1厅1卫,30.244680107694965,,/zufang/HZ2783895644665298944.html,120.03121104359761,4500,3天前维护,整租·翡翠城二期2室1厅南,https://hz.lianjia.com/zufang/feicuicheng1/pg5/
0,,未来科技城,余杭未来科技城西溪蓝海,,2.159,精选--18.00㎡东南4室2厅4卫,30.279410565232137,,/zufang/HZ2594110463181078528.html,120.01468392899449,1788,鹿汀公寓26天前维护,合租·西溪蓝海4居室东南卧,https://hz.lianjia.com/zufang/weilaikejicheng/pg4/
0,,闲林,余杭闲林绿城桃源小镇品霞苑,,6.25,--89.00㎡南3室1厅1卫,30.22976806904107,,/zufang/HZ2416655470229200896.html,119.96634727729973,1500,今天维护,整租·绿城桃源小镇品霞苑3室1厅南,https://hz.lianjia.com/zufang/xianlin1/pg4/
1,,西溪,美好生活公寓,,7.643,69.00㎡3间在租2室1厅1卫,30.213455822781352,,/apartment/40981.html,120.00500127356354,,美好生活公寓今天维护,独栋·美好生活公寓完美生活店两室客厅带阳台2室1厅,https://hz.lianjia.com/zufang/xixi/pg4/
0,,翡翠城,余杭翡翠城翡翠城三期,,5.24,--215.44㎡南北4室2厅3卫,30.246499074778125,,/zufang/HZ2788912882769993728.html,120.02908295784447,15000,3天前维护,整租·翡翠城三期4室2厅南/北,https://hz.lianjia.com/zufang/feicuicheng1/pg5/
0,,未来科技城,余杭未来科技城阳光城未来悦MAX,,0.783,--89.00㎡南3室2厅2卫,30.274755109112583,,/zufang/HZ2817378234151477248.html,119.99528160794559,5800,3天前维护,整租·阳光城未来悦MAX3室2厅南,https://hz.lianjia.com/zufang/weilaikejicheng/pg4/
0,,闲林,余杭闲林赞成乐山红叶,,4.539,--240.00㎡南4室2厅3卫,30.240708072335345,,/zufang/HZ2469322773999394816.html,119.98736798555542,11000,1天前维护,整租·赞成乐山红叶4室2厅南,https://hz.lianjia.com/zufang/xianlin1/pg4/
0,,西溪,西湖西溪西溪九号,,15.724,--48.63㎡南2室1厅1卫,30.28108347148038,,/zufang/HZ2797746148180500480.html,120.15605664506884,4500,1天前维护,整租·西溪九号2室1厅南,https://hz.lianjia.com/zufang/xixi/pg5/
0,,翡翠城,余杭翡翠城金都雅苑,,4.789,--240.00㎡南5室2厅3卫,30.244193322904515,,/zufang/HZ2733254540697804800.html,120.01761060834599,15000,2天前维护,整租·金都雅苑5室2厅南,https://hz.lianjia.com/zufang/feicuicheng1/pg5/
0,,未来科技城,余杭未来科技城佳源未来府,,4.654,--89.00㎡南3室2厅1卫,30.27722793129022,,/zufang/HZ2817443618619662336.html,119.94407504980755,5000,3天前维护,整租·佳源未来府3室2厅南,https://hz.lianjia.com/zufang/weilaikejicheng/pg4/
0,,闲林,余杭闲林融创金成未来海,,3.296,--128.00㎡南4室2厅2卫,30.2516668117035,,/zufang/HZ2746201576166670336.html,119.99236480995467,5500,今天维护,整租·融创金成未来海4室2厅南,https://hz.lianjia.com/zufang/xianlin1/pg4/
1,,西溪,美好生活公寓,,7.643,70.00-80.00㎡3间在租2室2厅1卫,30.213455822781352,,/apartment/39398.html,120.00500127356354,,美好生活公寓2天前维护,独栋·美好生活公寓绿城和庐臻选店通燃气两室两厅2室2厅,https://hz.lianjia.com/zufang/xixi/pg5/
0,,翡翠城,余杭翡翠城华元西溪欢乐城,,4.674,--40.00㎡南2室1厅1卫,30.24684896523623,,/zufang/HZ2791293281705926656.html,120.0201803909184,2800,今天维护,整租·华元西溪欢乐城2室1厅南,https://hz.lianjia.com/zufang/feicuicheng1/pg5/
0,,未来科技城,余杭未来科技城欧美金融城,,1.901,--46.55㎡东南1室1厅1卫,30.287634006890965,,/zufang/HZ2817272865022279680.html,120.01069697964955,4800,1天前维护,整租·欧美金融城1室1厅东南,https://hz.lianjia.com/zufang/weilaikejicheng/pg4/
0,,闲林,余杭闲林中港罗兰小镇,,7.502,--109.00㎡南3室2厅2卫,30.242243741397246,,/zufang/HZ2739258926469226496.html,119.92861844588066,2000,4天前维护,整租·中港罗兰小镇3室2厅南,https://hz.lianjia.com/zufang/xianlin1/pg4/
0,,西溪,余杭西溪远洋西溪公馆,,5.621,--59.00㎡东1室1厅1卫,30.28962197090435,,/zufang/HZ2816763622838517760.html,120.05005111522783,5000,今天维护,整租·远洋西溪公馆1室1厅东,https://hz.lianjia.com/zufang/xixi/pg5/
0,,翡翠城,余杭翡翠城华元蒙卡岸,,4.457,--122.00㎡南3室2厅2卫,30.247045280842684,,/zufang/HZ2730444762388897792.html,120.0163920569217,3500,5天前维护,整租·华元蒙卡岸3室2厅错层南,https://hz.lianjia.com/zufang/feicuicheng1/pg5/
0,,未来科技城,余杭未来科技城鼎创财富中心,,2.282,--45.00㎡东2室1厅2卫,30.288253110914155,,/zufang/HZ2818937967916630016.html,120.01466578322318,5000,6天前维护,整租·鼎创财富中心2室1厅东,https://hz.lianjia.com/zufang/weilaikejicheng/pg4/
0,,闲林,余杭闲林赞成乐山红叶,,4.539,--89.00㎡南3室2厅1卫,30.240708072335345,,/zufang/HZ2739187413367922688.html,119.98736798555542,3500,1天前维护,整租·赞成乐山红叶3室2厅南,https://hz.lianjia.com/zufang/xianlin1/pg4/
1,,西溪,美好生活公寓,,7.643,69.00㎡3间在租2室1厅1卫,30.213455822781352,,/apartment/40981.html,120.00500127356354,,美好生活公寓今天维护,独栋·美好生活公寓完美生活店两室客厅带阳台2室1厅,https://hz.lianjia.com/zufang/xixi/pg5/
0,,翡翠城,余杭翡翠城翡翠城一期,,5.262,--134.91㎡南3室2厅2卫,30.246105505005875,,/zufang/HZ2731145353654452224.html,120.02891632217238,6500,3天前维护,整租·翡翠城一期3室2厅南,https://hz.lianjia.com/zufang/feicuicheng1/pg5/
0,,未来科技城,余杭未来科技城华夏之心,,1.924,--44.00㎡西北1室1厅1卫,30.289763003395066,,/zufang/HZ2800686619516993536.html,120.00979103854273,4500,链家今天维护,整租·华夏之心1室1厅西北,https://hz.lianjia.com/zufang/weilaikejicheng/pg4/
0,,闲林,余杭闲林绿城桃源小镇,,5.954,--90.06㎡南2室2厅1卫,30.230505491386737,,/zufang/HZ2742672939215224832.html,119.97271015488802,1500,今天维护,整租·绿城桃源小镇2室2厅南,https://hz.lianjia.com/zufang/xianlin1/pg4/
0,,西溪,余杭西溪远洋西溪公馆,,5.621,--190.00㎡南4室2厅3卫,30.28962197090435,,/zufang/HZ2818767635762642944.html,120.05005111522783,11000,1天前维护,整租·远洋西溪公馆4室2厅南,https://hz.lianjia.com/zufang/xixi/pg5/
0,,翡翠城,,,,35.00㎡1间在租1室0厅1卫,,,/apartment/11925.html,,1730,美好时光酒店公寓6天前维护,独栋·美好时光酒店公寓五常店NT独厨独卫小温馨开间,https://hz.lianjia.com/zufang/feicuicheng1/pg5/
0,,未来科技城,余杭未来科技城仓乐雅苑,,3.227,精选--25.00㎡南3室3厅3卫,30.286964066558873,,/zufang/HZ2724533750674767872.html,120.0252717170573,1600,鹿汀公寓1个月前维护,合租·仓乐雅苑3居室南卧,https://hz.lianjia.com/zufang/weilaikejicheng/pg4/
0,,闲林,余杭闲林华元玉榕庄,,3.085,--341.00㎡南6室2厅5卫,30.254150827925105,,/zufang/HZ2747829616092643328.html,119.98574331021008,5000,5天前维护,整租·华元玉榕庄6室2厅南,https://hz.lianjia.com/zufang/xianlin1/pg4/
1,,西溪,美好生活公寓,,7.643,70.00-80.00㎡3间在租2室2厅1卫,30.213455822781352,,/apartment/39398.html,120.00500127356354,,美好生活公寓2天前维护,独栋·美好生活公寓绿城和庐臻选店精装修两室两厅2室2厅,https://hz.lianjia.com/zufang/xixi/pg5/
0,,翡翠城,余杭翡翠城华立江南水乡,,4.792,--206.00㎡南北4室3厅3卫,30.25651358711302,,/zufang/HZ2740573818903855104.html,120.03311221737893,12000,链家2天前维护,整租·华立江南水乡4室3厅南/北,https://hz.lianjia.com/zufang/feicuicheng1/pg5/
0,,未来科技城,余杭未来科技城万科星空,,4.184,--89.00㎡南3室2厅1卫,30.296109643262117,,/zufang/HZ2800186214320447488.html,120.03236563566959,7300,1天前维护,整租·万科星空3室2厅南,https://hz.lianjia.com/zufang/weilaikejicheng/pg4/
0,,闲林,余杭闲林绿城桃源小镇,,5.954,--287.00㎡南5室2厅3卫,30.230505491386737,,/zufang/HZ2748654953777070080.html,119.97271015488802,6000,1天前维护,整租·绿城桃源小镇5室2厅南,https://hz.lianjia.com/zufang/xianlin1/pg4/
0,,西溪,余杭西溪远洋西溪公馆,,5.621,--169.70㎡南4室2厅4卫,30.28962197090435,,/zufang/HZ2818688098681503744.html,120.05005111522783,12000,4天前维护,整租·远洋西溪公馆4室2厅南,https://hz.lianjia.com/zufang/xixi/pg5/
0,,翡翠城,,,,18.00㎡1间在租1室0厅1卫,,,/apartment/11925.html,,1430,美好时光酒店公寓6天前维护,独栋·美好时光酒店公寓五常店NT独卫朝南北欧风开间,https://hz.lianjia.com/zufang/feicuicheng1/pg5/
0,,未来科技城,余杭未来科技城北大资源未名府,,5.74,精选--35.00㎡东2室1厅1卫,30.300370881721904,,/zufang/HZ2825164493507018752.html,120.0478610463945,3900,泊舍公寓2天前维护,整租·北大资源未名府2室1厅LOFT东,https://hz.lianjia.com/zufang/weilaikejicheng/pg4/
0,,闲林,余杭闲林南湖大厦,,5.986,--84.90㎡南1室1厅1卫,30.249113941236114,,/zufang/HZ2746306260608753664.html,119.94235039305894,2000,4天前维护,整租·南湖大厦1室1厅南,https://hz.lianjia.com/zufang/xianlin1/pg4/
0,,西溪,西湖西溪融创河滨之城水澜轩,,7.897,--89.00㎡南3室2厅1卫,30.304570041139915,,/zufang/HZ2799080970689716224.html,120.0700170331537,7500,1天前维护,整租·融创河滨之城水澜轩3室2厅南,https://hz.lianjia.com/zufang/xixi/pg5/
0,,翡翠城,余杭翡翠城融创溪涧堂,,5.301,--135.00㎡南4室2厅3卫,30.256806510348078,,/zufang/HZ2362929145811574784.html,120.03965816963014,5000,1天前维护,整租·融创溪涧堂4室2厅跃层南,https://hz.lianjia.com/zufang/feicuicheng1/pg5/
0,,未来科技城,余杭未来科技城庭院深深,,4.095,--103.00㎡南3室2厅1卫,30.25131966830845,,/zufang/HZ2800127100605448192.html,119.96755630668562,3000,2天前维护,整租·庭院深深3室2厅南,https://hz.lianjia.com/zufang/weilaikejicheng/pg4/
0,,闲林,余杭闲林怡景花城,,5.795,--230.00㎡南5室2厅3卫,30.239805832058344,,/zufang/HZ2747896913474371584.html,120.02880627974741,8000,5天前维护,整租·怡景花城5室2厅跃层南,https://hz.lianjia.com/zufang/xianlin1/pg4/
0,,西溪,西湖西溪融创河滨之城水澜轩,,7.897,--89.00㎡南3室1厅1卫,30.304570041139915,,/zufang/HZ2799971719241007104.html,120.0700170331537,7800,4天前维护,整租·融创河滨之城水澜轩3室1厅南,https://hz.lianjia.com/zufang/xixi/pg5/
0,,翡翠城,,,,16.00-50.00㎡4间在租1室0厅1卫,,,/apartment/11925.html,,1380-2800,美好时光酒店公寓6天前维护,独栋·美好时光酒店公寓五常店A店长推荐（可日租）开间,https://hz.lianjia.com/zufang/feicuicheng1/pg5/
0,,未来科技城,余杭未来科技城泊悦府,,3.227,--128.00㎡南3室2厅2卫,30.286964066558873,,/zufang/HZ2800569944742297600.html,120.0252717170573,4100,1天前维护,整租·泊悦府3室2厅南,https://hz.lianjia.com/zufang/weilaikejicheng/pg4/
0,,闲林,余杭闲林融创金成江南府,,3.993,--127.00㎡南3室2厅2卫,30.24924504928577,,/zufang/HZ2748556284361187328.html,119.97358797903236,4500,1天前维护,整租·融创金成江南府3室2厅南,https://hz.lianjia.com/zufang/xianlin1/pg4/
0,,西溪,余杭西溪远洋西溪公馆,,5.621,--172.00㎡东4室2厅4卫,30.28962197090435,,/zufang/HZ2817447493242470400.html,120.05005111522783,10000,4天前维护,整租·远洋西溪公馆4室2厅东,https://hz.lianjia.com/zufang/xixi/pg5/
0,,翡翠城,余杭翡翠城金都雅苑,,4.789,--210.00㎡南4室2厅3卫,30.244193322904515,,/zufang/HZ2338123815881809920.html,120.01761060834599,9000,3天前维护,整租·金都雅苑4室2厅南,https://hz.lianjia.com/zufang/feicuicheng1/pg5/
0,,未来科技城,余杭未来科技城金沙公寓,,3.708,--96.54㎡南4室2厅2卫,30.262129277178328,,/zufang/HZ2800611618432753664.html,119.96072613057105,3500,今天维护,整租·金沙公寓4室2厅南,https://hz.lianjia.com/zufang/weilaikejicheng/pg4/
0,,闲林,余杭闲林新西湖小镇,,7.364,--73.00㎡南2室2厅1卫,30.245083978886594,,/zufang/HZ2748610339804553216.html,119.92811341852295,1500,1天前维护,整租·新西湖小镇2室2厅南,https://hz.lianjia.com/zufang/xianlin1/pg4/
0,,西溪,余杭西溪远洋西溪公馆,,5.621,--89.00㎡西南3室1厅1卫,30.28962197090435,,/zufang/HZ2817494318804107264.html,120.05005111522783,5000,5天前维护,整租·远洋西溪公馆3室1厅西南,https://hz.lianjia.com/zufang/xixi/pg5/
0,,翡翠城,,,,35.00㎡1间在租1室1厅1卫,,,/apartment/11925.html,,1630,美好时光酒店公寓3天前维护,独栋·美好时光酒店公寓五常店loft独卫北欧风1室1厅,https://hz.lianjia.com/zufang/feicuicheng1/pg5/
0,,未来科技城,余杭未来科技城佳源未来府,,4.654,--77.45㎡南2室1厅1卫,30.27722793129022,,/zufang/HZ2800711618499969024.html,119.94407504980755,2500,今天维护,整租·佳源未来府2室1厅南,https://hz.lianjia.com/zufang/weilaikejicheng/pg4/
0,,闲林,余杭闲林怡景花城,,5.795,--228.00㎡南5室3厅3卫,30.239805832058344,,/zufang/HZ2560314749573406720.html,120.02880627974741,6500,1天前维护,整租·怡景花城5室3厅南,https://hz.lianjia.com/zufang/xianlin1/pg5/
0,,西溪,西湖西溪龙湖西溪天街,,10.526,精选--38.00㎡西2室2厅2卫,30.286669207147614,,/zufang/HZ2708144411576893440.html,120.10175281936296,2660,青枝公寓7天前维护,合租·龙湖西溪天街2居室LOFT西卧,https://hz.lianjia.com/zufang/xixi/pg5/
0,,翡翠城,余杭翡翠城西溪乐天城,,6.013,--50.00㎡南2室1厅1卫,30.250753754064927,,/zufang/HZ2373799781261910016.html,120.04396832929757,3200,贝壳优选8个月前维护,整租·西溪乐天城2室1厅南,https://hz.lianjia.com/zufang/feicuicheng1/pg5/
0,,未来科技城,余杭未来科技城佳源未来府,,4.654,--80.42㎡南北2室2厅1卫,30.27722793129022,,/zufang/HZ2800165879361847296.html,119.94407504980755,3800,3天前维护,整租·佳源未来府2室2厅南/北,https://hz.lianjia.com/zufang/weilaikejicheng/pg4/
0,,闲林,余杭闲林华元玉榕庄,,3.085,--392.79㎡南5室2厅4卫,30.254150827925105,,/zufang/HZ2556541377685504000.html,119.98574331021008,7000,3天前维护,整租·华元玉榕庄5室2厅南,https://hz.lianjia.com/zufang/xianlin1/pg5/
0,,西溪,西湖西溪留和春天,,15.724,--140.46㎡南北3室2厅2卫,30.28108347148038,,/zufang/HZ2819439808554729472.html,120.15605664506884,6000,1天前维护,整租·留和春天3室2厅南/北,https://hz.lianjia.com/zufang/xixi/pg5/
0,,翡翠城,,,,55.00㎡1间在租2室2厅1卫,,,/apartment/39432.html,,2600,驿客公寓7天前维护,独栋·驿客公寓华元西溪欢乐城店两室loft2室2厅,https://hz.lianjia.com/zufang/feicuicheng1/pg5/
0,,未来科技城,余杭未来科技城合景天峻,,3.227,--109.73㎡南3室2厅2卫,30.286964066558873,,/zufang/HZ2800079896020525056.html,120.0252717170573,6800,链家今天维护,整租·合景天峻3室2厅南,https://hz.lianjia.com/zufang/weilaikejicheng/pg4/
0,,闲林,余杭闲林佳兆业西溪璞园,,6.449,--126.03㎡东4室2厅2卫,30.24151740602395,,/zufang/HZ2573812436289191936.html,120.04115178220157,3600,4天前维护,整租·佳兆业西溪璞园4室2厅东,https://hz.lianjia.com/zufang/xianlin1/pg5/
0,,西溪,西湖西溪龙湖西溪天街,,10.526,精选--40.00㎡西2室1厅2卫,30.286669207147614,,/zufang/HZ2733261845053054976.html,120.10175281936296,2860,青枝公寓7天前维护,合租·龙湖西溪天街2居室LOFT西卧,https://hz.lianjia.com/zufang/xixi/pg5/
